// VENUE DATA TOP-UP - 351 Valencia venues from Google Places v4
// Pulled: 2026-03-26
// Types: spanish_restaurant, mediterranean_restaurant, seafood_restaurant, juice_shop, resort_hotel, bar_and_grill
// Merge with VENUES_GOOGLE from Pull 1 before use
const VENUES_GOOGLE_2 = [
  {id:1,name:"Puerta del Mar",lat:39.470966399999995,lng:-0.3753882,facing:180,open:0.7,type:"terrace",hood:"Ensanche",icon:"🌿",vibes:["Mediterranean","Wine","Cocktails"],book:true,outdoorSeating:false,googleType:"mediterranean_restaurant",rating:4.5,ratingCount:14774},
  {id:2,name:"Los Gómez, Correos",lat:39.4697609,lng:-0.37434170000000005,facing:180,open:0.7,type:"terrace",hood:"Ensanche",icon:"🌿",vibes:["Spanish","Wine","Cocktails"],book:true,outdoorSeating:true,googleType:"spanish_restaurant",rating:4.5,ratingCount:16181},
  {id:3,name:"Restaurante Casa BALDO 1915",lat:39.4685306,lng:-0.375754,facing:180,open:0.7,type:"terrace",hood:"Ensanche",icon:"🌿",vibes:["Beer garden","Wine","Cocktails"],book:true,outdoorSeating:true,googleType:"restaurant",rating:4,ratingCount:5383},
  {id:4,name:"Los Gómez, San Vicente",lat:39.473605899999995,lng:-0.37562629999999997,facing:180,open:0.7,type:"terrace",hood:"El Carmen",icon:"🌿",vibes:["Spanish","Wine","Cocktails"],book:true,outdoorSeating:true,googleType:"spanish_restaurant",rating:4.6,ratingCount:7872},
  {id:5,name:"Restaurant Secret",lat:39.473327,lng:-0.375048,facing:180,open:0.7,type:"terrace",hood:"El Carmen",icon:"🌿",vibes:["Mediterranean","Wine","Cocktails"],book:true,outdoorSeating:true,googleType:"mediterranean_restaurant",rating:4.7,ratingCount:4400},
  {id:6,name:"Sagardi Valencia Centro",lat:39.473304999999996,lng:-0.37611900000000004,facing:180,open:0.7,type:"terrace",hood:"El Carmen",icon:"🌿",vibes:["Beer garden","Wine","Cocktails"],book:true,outdoorSeating:true,googleType:"basque_restaurant",rating:4.2,ratingCount:6998},
  {id:7,name:"La Vita e Bella",lat:39.4706887,lng:-0.3773919,facing:180,open:0.7,type:"terrace",hood:"Ensanche",icon:"🌿",vibes:["Beer garden","Wine","Cocktails"],book:true,outdoorSeating:true,googleType:"italian_restaurant",rating:4.7,ratingCount:10392},
  {id:8,name:"La Terrazza",lat:39.4715329,lng:-0.3776096,facing:180,open:0.7,type:"terrace",hood:"Ensanche",icon:"🌿",vibes:["Beer garden","Wine","Cocktails"],book:true,outdoorSeating:true,googleType:"italian_restaurant",rating:4.7,ratingCount:9552},
  {id:9,name:"Restaurante Vaqueta Gastro Mercat",lat:39.4731084,lng:-0.3774709,facing:180,open:0.7,type:"terrace",hood:"El Carmen",icon:"🌿",vibes:["Beer garden","Wine","Cocktails"],book:true,outdoorSeating:true,googleType:"restaurant",rating:4.2,ratingCount:4938},
  {id:10,name:"La Riuà",lat:39.4739571,lng:-0.373732,facing:180,open:0.7,type:"terrace",hood:"Ensanche",icon:"🌿",vibes:["Mediterranean","Wine","Bookable"],book:true,outdoorSeating:false,googleType:"mediterranean_restaurant",rating:4.3,ratingCount:3262},
  {id:11,name:"Regla de DOS",lat:39.4726327,lng:-0.3755634,facing:180,open:0.7,type:"terrace",hood:"Ensanche",icon:"🌿",vibes:["Mediterranean","Wine","Cocktails"],book:true,outdoorSeating:true,googleType:"mediterranean_restaurant",rating:4.6,ratingCount:1291},
  {id:12,name:"Navarro",lat:39.4692764,lng:-0.378042,facing:180,open:0.7,type:"terrace",hood:"Ensanche",icon:"🌿",vibes:["Mediterranean","Wine","Bookable"],book:true,outdoorSeating:true,googleType:"mediterranean_restaurant",rating:4.6,ratingCount:3172},
  {id:13,name:"Rincón 33",lat:39.4753002,lng:-0.37685769999999996,facing:180,open:0.7,type:"terrace",hood:"El Carmen",icon:"🌿",vibes:["Beer garden","Wine","Cocktails"],book:true,outdoorSeating:true,googleType:"restaurant",rating:4.6,ratingCount:2478},
  {id:14,name:"Bodega La Rentaora",lat:39.477818,lng:-0.380297,facing:180,open:0.65,type:"bar",hood:"El Carmen",icon:"🍺",vibes:["Beer garden","Wine","Bookable"],book:true,outdoorSeating:true,googleType:"bar",rating:4.4,ratingCount:2017},
  {id:15,name:"LALOLA Restaurante",lat:39.4755118,lng:-0.3760904,facing:180,open:0.7,type:"terrace",hood:"El Carmen",icon:"🌿",vibes:["Beer garden","Wine","Cocktails"],book:true,outdoorSeating:true,googleType:"restaurant",rating:4.3,ratingCount:2863},
  {id:16,name:"Bar La Pilareta",lat:39.4759234,lng:-0.3804861,facing:180,open:0.65,type:"bar",hood:"El Carmen",icon:"🍺",vibes:["Beer garden","Wine","Cocktails"],book:true,outdoorSeating:true,googleType:"bar",rating:4,ratingCount:3205},
  {id:17,name:"CLANN BAR TAPAS",lat:39.4749116,lng:-0.3770654,facing:180,open:0.65,type:"bar",hood:"El Carmen",icon:"🍺",vibes:["Beer garden","Wine","Cocktails"],book:true,outdoorSeating:true,googleType:"bar",rating:4.6,ratingCount:1426},
  {id:18,name:"ORIO Valencia",lat:39.472471999999996,lng:-0.37653,facing:180,open:0.7,type:"terrace",hood:"Ensanche",icon:"🌿",vibes:["Beer garden","Wine","Cocktails"],book:true,outdoorSeating:null,googleType:"basque_restaurant",rating:4,ratingCount:3750},
  {id:19,name:"Honest Greens Pascual y Genís",lat:39.4692725,lng:-0.3736038,facing:180,open:0.7,type:"terrace",hood:"Ensanche",icon:"🌿",vibes:["Beer garden","Wine"],book:false,outdoorSeating:false,googleType:"restaurant",rating:4.5,ratingCount:3147},
  {id:20,name:"Begin Pascual i Genís",lat:39.469584,lng:-0.3737861,facing:180,open:0.7,type:"terrace",hood:"Ensanche",icon:"🌿",vibes:["Beer garden","Wine","Bookable"],book:true,outdoorSeating:false,googleType:"restaurant",rating:4.5,ratingCount:5446},
  {id:21,name:"Gran Mercat",lat:39.473070899999996,lng:-0.3774264,facing:180,open:0.7,type:"terrace",hood:"El Carmen",icon:"🌿",vibes:["Mediterranean","Wine","Cocktails"],book:true,outdoorSeating:true,googleType:"mediterranean_restaurant",rating:4.5,ratingCount:10920},
  {id:22,name:"Latte e Farina Cucina Italiana",lat:39.473476399999996,lng:-0.3763245,facing:180,open:0.7,type:"terrace",hood:"El Carmen",icon:"🌿",vibes:["Beer garden","Wine","Cocktails"],book:true,outdoorSeating:true,googleType:"italian_restaurant",rating:4.7,ratingCount:6050},
  {id:23,name:"El Ventorro Valencia",lat:39.4727088,lng:-0.3716355,facing:180,open:0.7,type:"terrace",hood:"Ensanche",icon:"🌿",vibes:["Mediterranean","Wine","Bookable"],book:true,outdoorSeating:false,googleType:"mediterranean_restaurant",rating:4.4,ratingCount:472},
  {id:24,name:"Saona Martínez Cubells",lat:39.468432299999996,lng:-0.3744302,facing:180,open:0.7,type:"terrace",hood:"Ensanche",icon:"🌿",vibes:["Mediterranean","Wine","Cocktails"],book:true,outdoorSeating:false,googleType:"mediterranean_restaurant",rating:4.4,ratingCount:6325},
  {id:25,name:"Saona Casino",lat:39.47312590000001,lng:-0.3725788,facing:180,open:0.7,type:"terrace",hood:"Ensanche",icon:"🌿",vibes:["Mediterranean","Wine","Cocktails"],book:true,outdoorSeating:false,googleType:"mediterranean_restaurant",rating:4.6,ratingCount:12642},
  {id:26,name:"Saona TAGOMAGO Valencia",lat:39.4719909,lng:-0.3737792,facing:180,open:0.7,type:"terrace",hood:"Ensanche",icon:"🌿",vibes:["Mediterranean","Wine","Cocktails"],book:true,outdoorSeating:true,googleType:"mediterranean_restaurant",rating:4.4,ratingCount:5652},
  {id:27,name:"Como Yo",lat:39.474899199999996,lng:-0.3695024,facing:180,open:0.7,type:"terrace",hood:"Alameda",icon:"🌿",vibes:["Beer garden","Wine","Cocktails"],book:true,outdoorSeating:true,googleType:"restaurant",rating:4.7,ratingCount:1128},
  {id:28,name:"Marisquería Civera",lat:39.4687944,lng:-0.3744028,facing:180,open:0.7,type:"terrace",hood:"Ensanche",icon:"🌿",vibes:["Beer garden","Wine","Cocktails"],book:true,outdoorSeating:true,googleType:"restaurant",rating:4.4,ratingCount:2637},
  {id:29,name:"TABERNA ALKÁZAR",lat:39.4689037,lng:-0.37446029999999997,facing:180,open:0.7,type:"terrace",hood:"Ensanche",icon:"🌿",vibes:["Mediterranean","Wine","Cocktails"],book:true,outdoorSeating:true,googleType:"mediterranean_restaurant",rating:4.7,ratingCount:2420},
  {id:30,name:"Marisquería L'Odisea",lat:39.4727235,lng:-0.3806085,facing:180,open:0.7,type:"terrace",hood:"Ciudad Vieja",icon:"🌿",vibes:["Seafood","Wine","Cocktails"],book:true,outdoorSeating:false,googleType:"seafood_restaurant",rating:4.5,ratingCount:1362},
  {id:31,name:"Restaurant El Balcó del Micalet",lat:39.4750787,lng:-0.3763806,facing:180,open:0.7,type:"terrace",hood:"El Carmen",icon:"🌿",vibes:["Mediterranean","Wine","Bookable"],book:true,outdoorSeating:false,googleType:"mediterranean_restaurant",rating:3.9,ratingCount:1240},
  {id:32,name:"Bajamarea",lat:39.477049,lng:-0.3796716,facing:180,open:0.7,type:"terrace",hood:"El Carmen",icon:"🌿",vibes:["Beer garden","Wine","Bookable"],book:true,outdoorSeating:false,googleType:"pizza_restaurant",rating:4.6,ratingCount:1010},
  {id:33,name:"PESCADOS GUILLEM",lat:39.473822,lng:-0.37917989999999996,facing:180,open:0.7,type:"terrace",hood:"El Carmen",icon:"🌿",vibes:["Seafood","Wine"],book:false,outdoorSeating:null,googleType:"seafood_restaurant",rating:5,ratingCount:6},
  {id:34,name:"Lindos restos de valencia",lat:39.4752085,lng:-0.3761921,facing:180,open:0.7,type:"terrace",hood:"El Carmen",icon:"🌿",vibes:["Seafood"],book:false,outdoorSeating:null,googleType:"seafood_restaurant"},
  {id:35,name:"Pescados y Mariscos ALFREDO GIL",lat:39.4738518,lng:-0.3791277,facing:180,open:0.65,type:"bar",hood:"El Carmen",icon:"🍺",vibes:["Outdoor seating"],book:false,outdoorSeating:null,googleType:"food_store",rating:4.4,ratingCount:7},
  {id:36,name:"Linaje, Casa Paco Gómez",lat:39.468250399999995,lng:-0.376507,facing:180,open:0.7,type:"terrace",hood:"Ensanche",icon:"🌿",vibes:["Beer garden","Wine","Cocktails"],book:true,outdoorSeating:true,googleType:"restaurant"},
  {id:37,name:"Zumería Naturalia",lat:39.4738732,lng:-0.37417819999999996,facing:180,open:0.75,type:"cafe",hood:"El Carmen",icon:"☕",vibes:["Juice bar","Cocktails"],book:false,outdoorSeating:true,googleType:"juice_shop",rating:4.4,ratingCount:1859},
  {id:38,name:"PLANT SHACK Valencia",lat:39.4715217,lng:-0.37438859999999996,facing:180,open:0.65,type:"bar",hood:"Ensanche",icon:"🍺",vibes:["Outdoor seating"],book:false,outdoorSeating:null,googleType:"cafe",rating:4.8,ratingCount:93},
  {id:39,name:"Narig Fruitland",lat:39.4733163,lng:-0.3791989,facing:180,open:0.75,type:"cafe",hood:"El Carmen",icon:"☕",vibes:["Juice bar"],book:false,outdoorSeating:null,googleType:"juice_shop",rating:1,ratingCount:1},
  {id:40,name:"Living Valencia Apartments",lat:39.472687799999996,lng:-0.3777406,facing:180,open:0.65,type:"bar",hood:"Ensanche",icon:"🍺",vibes:["Outdoor seating"],book:false,outdoorSeating:null,googleType:"hotel",rating:4.1,ratingCount:265},
  {id:41,name:"Café Infanta",lat:39.4761111,lng:-0.38,facing:180,open:0.65,type:"bar",hood:"El Carmen",icon:"🍺",vibes:["Grill","Wine","Cocktails"],book:true,outdoorSeating:true,googleType:"bar_and_grill",rating:4.2,ratingCount:3944},
  {id:42,name:"Redondo en Boca",lat:39.4762918,lng:-0.3808884,facing:180,open:0.7,type:"terrace",hood:"El Carmen",icon:"🌿",vibes:["Beer garden","Wine","Cocktails"],book:true,outdoorSeating:true,googleType:"restaurant",rating:4.5,ratingCount:1396},
  {id:43,name:"Colmado LaLola",lat:39.4751337,lng:-0.37574769999999996,facing:180,open:0.65,type:"bar",hood:"El Carmen",icon:"🍺",vibes:["Beer garden","Wine","Cocktails"],book:false,outdoorSeating:true,googleType:"bar",rating:4.4,ratingCount:1563},
  {id:44,name:"Beher",lat:39.4710574,lng:-0.37634209999999996,facing:180,open:0.7,type:"terrace",hood:"Ensanche",icon:"🌿",vibes:["Beer garden","Wine","Cocktails"],book:true,outdoorSeating:true,googleType:"restaurant",rating:4.2,ratingCount:1923},
  {id:45,name:"La Mafia se sienta a la mesa",lat:39.46986,lng:-0.374273,facing:180,open:0.7,type:"terrace",hood:"Ensanche",icon:"🌿",vibes:["Beer garden","Wine","Cocktails"],book:true,outdoorSeating:true,googleType:"italian_restaurant",rating:4.3,ratingCount:1829},
  {id:46,name:"Taberna Sants Joan´s",lat:39.474168,lng:-0.37822469999999997,facing:180,open:0.65,type:"bar",hood:"El Carmen",icon:"🍺",vibes:["Grill","Wine","Cocktails"],book:true,outdoorSeating:true,googleType:"bar_and_grill",rating:4.4,ratingCount:3054},
  {id:47,name:"Borgia Winebar",lat:39.476676,lng:-0.3772682,facing:180,open:0.65,type:"bar",hood:"El Carmen",icon:"🍺",vibes:["Beer garden","Wine","Cocktails"],book:true,outdoorSeating:true,googleType:"bar",rating:4.5,ratingCount:289},
  {id:48,name:"Trencat",lat:39.4734414,lng:-0.3773121,facing:180,open:0.65,type:"bar",hood:"El Carmen",icon:"🍺",vibes:["Grill","Wine"],book:false,outdoorSeating:true,googleType:"bar_and_grill",rating:4.5,ratingCount:1213},
  {id:49,name:"Focattina",lat:39.475595899999995,lng:-0.3734753,facing:180,open:0.65,type:"bar",hood:"Alameda",icon:"🍺",vibes:["Beer garden"],book:false,outdoorSeating:null,googleType:"meal_takeaway",rating:4.9,ratingCount:385},
  {id:50,name:"La Més Cabuda",lat:39.471889499999996,lng:-0.3792412,facing:180,open:0.65,type:"bar",hood:"Ensanche",icon:"🍺",vibes:["Grill","Wine","Bookable"],book:true,outdoorSeating:true,googleType:"bar_and_grill",rating:4.4,ratingCount:502},
  {id:51,name:"La Rioja VIII",lat:39.4709645,lng:-0.3787008,facing:180,open:0.65,type:"bar",hood:"Ensanche",icon:"🍺",vibes:["Grill","Wine","Cocktails"],book:true,outdoorSeating:true,googleType:"bar_and_grill",rating:3.6,ratingCount:1338},
  {id:52,name:"Spritzeria - lonja de la seda",lat:39.474675399999995,lng:-0.37864369999999997,facing:180,open:0.65,type:"bar",hood:"El Carmen",icon:"🍺",vibes:["Beer garden","Wine","Cocktails"],book:false,outdoorSeating:true,googleType:"bar",rating:4.8,ratingCount:249},
  {id:53,name:"El Patio de Pepa | Tapas y Cócteles",lat:39.4750939,lng:-0.37762199999999996,facing:180,open:0.65,type:"bar",hood:"El Carmen",icon:"🍺",vibes:["Grill","Wine","Cocktails"],book:true,outdoorSeating:true,googleType:"bar_and_grill",rating:4.3,ratingCount:818},
  {id:54,name:"BAR El PATIO",lat:39.4770748,lng:-0.3727116,facing:180,open:0.65,type:"bar",hood:"Alameda",icon:"🍺",vibes:["Grill","Wine","Cocktails"],book:true,outdoorSeating:false,googleType:"bar_and_grill",rating:4.3,ratingCount:513},
  {id:55,name:"deli_rant vlc",lat:39.472145499999996,lng:-0.3738259,facing:180,open:0.65,type:"bar",hood:"Ensanche",icon:"🍺",vibes:["Grill","Wine","Cocktails"],book:true,outdoorSeating:true,googleType:"bar_and_grill",rating:4.2,ratingCount:765},
  {id:56,name:"Petit Bistró Virgen - Restaurante Mediterraneo",lat:39.4763604,lng:-0.3758376,facing:180,open:0.7,type:"terrace",hood:"El Carmen",icon:"🌿",vibes:["Mediterranean","Wine","Cocktails"],book:false,outdoorSeating:true,googleType:"mediterranean_restaurant",rating:4.4,ratingCount:1268},
  {id:57,name:"Anita Giro",lat:39.474511799999995,lng:-0.3824516,facing:180,open:0.65,type:"bar",hood:"El Carmen",icon:"🍺",vibes:["Grill","Wine","Cocktails"],book:true,outdoorSeating:true,googleType:"bar_and_grill",rating:4.5,ratingCount:619},
  {id:58,name:"VIRIATO La Plaza Restaurante",lat:39.475009899999996,lng:-0.3821437,facing:180,open:0.65,type:"bar",hood:"El Carmen",icon:"🍺",vibes:["Grill","Wine","Cocktails"],book:true,outdoorSeating:true,googleType:"bar_and_grill",rating:4.3,ratingCount:455},
  {id:59,name:"Pepita Pulgarcita",lat:39.4766015,lng:-0.3772503,facing:180,open:0.65,type:"bar",hood:"El Carmen",icon:"🍺",vibes:["Beer garden","Wine","Cocktails"],book:true,outdoorSeating:false,googleType:"bar",rating:4.6,ratingCount:255},
  {id:60,name:"BAR TRANSITS",lat:39.4710514,lng:-0.3750762,facing:180,open:0.65,type:"bar",hood:"Ensanche",icon:"🍺",vibes:["Grill","Wine","Cocktails"],book:true,outdoorSeating:true,googleType:"bar_and_grill",rating:4.2,ratingCount:426},
  {id:61,name:"Restaurante Pelayo Gastro Trinquet",lat:39.4673328,lng:-0.3785055,facing:180,open:0.7,type:"terrace",hood:"Ensanche",icon:"🌿",vibes:["Beer garden","Wine","Cocktails"],book:true,outdoorSeating:false,googleType:"restaurant",rating:4.3,ratingCount:10228},
  {id:62,name:"Neco Buffet Mediterráneo",lat:39.467718,lng:-0.3752238,facing:180,open:0.7,type:"terrace",hood:"Ensanche",icon:"🌿",vibes:["Mediterranean","Wine"],book:false,outdoorSeating:false,googleType:"mediterranean_restaurant",rating:4.1,ratingCount:3439},
  {id:63,name:"Restaurante Asador de Aranda | Asador de carne en Valencia",lat:39.46712240000001,lng:-0.3734745,facing:180,open:0.7,type:"terrace",hood:"Ensanche",icon:"🌿",vibes:["Beer garden","Wine","Bookable"],book:true,outdoorSeating:false,googleType:"restaurant",rating:4.4,ratingCount:2098},
  {id:64,name:"Pintxo i Trago",lat:39.4737201,lng:-0.3767387,facing:180,open:0.65,type:"bar",hood:"El Carmen",icon:"🍺",vibes:["Beer garden","Wine","Cocktails"],book:false,outdoorSeating:true,googleType:"bar",rating:4.3,ratingCount:2116},
  {id:65,name:"Nutriterapia Valencia",lat:39.4645632,lng:-0.3752695,facing:180,open:0.65,type:"bar",hood:"Ruzafa",icon:"🍺",vibes:["Outdoor seating"],book:false,outdoorSeating:null,googleType:"grocery_store",rating:5,ratingCount:16},
  {id:66,name:"Juicy Lads - Açaí & Smoothies",lat:39.465313699999996,lng:-0.373454,facing:180,open:0.65,type:"bar",hood:"Ruzafa",icon:"🍺",vibes:["Outdoor seating"],book:false,outdoorSeating:null,googleType:"acai_shop",rating:5,ratingCount:59},
  {id:67,name:"Los Toneles",lat:39.46775290000001,lng:-0.37580959999999997,facing:180,open:0.65,type:"bar",hood:"Ensanche",icon:"🍺",vibes:["Beer garden","Wine"],book:false,outdoorSeating:true,googleType:"bar",rating:4,ratingCount:7613},
  {id:68,name:"RESTAURANTE MARZAL",lat:39.466229899999995,lng:-0.3792234,facing:180,open:0.65,type:"bar",hood:"Ruzafa",icon:"🍺",vibes:["Grill","Wine","Bookable"],book:true,outdoorSeating:false,googleType:"bar_and_grill",rating:4.3,ratingCount:691},
  {id:69,name:"MATA HARI",lat:39.4648405,lng:-0.3760166,facing:180,open:0.65,type:"bar",hood:"Ruzafa",icon:"🍺",vibes:["Grill","Wine","Bookable"],book:true,outdoorSeating:true,googleType:"bar_and_grill",rating:4.6,ratingCount:793},
  {id:70,name:"Golden Rooster Restaurant",lat:39.473184599999996,lng:-0.37863080000000005,facing:180,open:0.7,type:"terrace",hood:"El Carmen",icon:"🌿",vibes:["Beer garden","Wine","Bookable"],book:true,outdoorSeating:true,googleType:"restaurant",rating:3.4,ratingCount:544},
  {id:71,name:"JIB,S TABERNA",lat:39.4725587,lng:-0.37087880000000006,facing:180,open:0.65,type:"bar",hood:"Ensanche",icon:"🍺",vibes:["Beer garden","Wine","Cocktails"],book:true,outdoorSeating:true,googleType:"bar",rating:4.4,ratingCount:305},
  {id:72,name:"Bar Casa Paco",lat:39.4678743,lng:-0.3816749,facing:180,open:0.65,type:"bar",hood:"Gran Via",icon:"🍺",vibes:["Grill","Wine","Cocktails"],book:true,outdoorSeating:false,googleType:"bar_and_grill",rating:4.5,ratingCount:146},
  {id:73,name:"Ramdani",lat:39.4673251,lng:-0.3716912,facing:180,open:0.65,type:"bar",hood:"Ensanche",icon:"🍺",vibes:["Grill","Wine","Cocktails"],book:false,outdoorSeating:true,googleType:"bar_and_grill",rating:4.2,ratingCount:200},
  {id:74,name:"Siddhartha Coffee & People",lat:39.4677565,lng:-0.37372259999999996,facing:180,open:0.65,type:"bar",hood:"Ensanche",icon:"🍺",vibes:["Beer garden","Wine","Cocktails"],book:true,outdoorSeating:true,googleType:"bar",rating:3.9,ratingCount:314},
  {id:75,name:"Nou Gourmet | Restaurants València Centre",lat:39.465631300000005,lng:-0.3707167,facing:180,open:0.7,type:"terrace",hood:"Ruzafa",icon:"🌿",vibes:["Mediterranean","Wine","Cocktails"],book:true,outdoorSeating:null,googleType:"mediterranean_restaurant",rating:4.4,ratingCount:2023},
  {id:76,name:"Restaurante Pizcueta",lat:39.4664271,lng:-0.3728353,facing:180,open:0.7,type:"terrace",hood:"Ruzafa",icon:"🌿",vibes:["Beer garden","Wine","Cocktails"],book:true,outdoorSeating:true,googleType:"restaurant",rating:4.3,ratingCount:1384},
  {id:77,name:"Taberna Antonio Manuel",lat:39.4711212,lng:-0.37779809999999997,facing:180,open:0.65,type:"bar",hood:"Ensanche",icon:"🍺",vibes:["Beer garden","Wine","Cocktails"],book:true,outdoorSeating:true,googleType:"bar",rating:4.3,ratingCount:4509},
  {id:78,name:"Taberna Vasca CHE",lat:39.4648174,lng:-0.3720982,facing:180,open:0.65,type:"bar",hood:"Ruzafa",icon:"🍺",vibes:["Grill","Wine"],book:false,outdoorSeating:true,googleType:"bar_and_grill",rating:4.5,ratingCount:2197},
  {id:79,name:"Pez Tortilla",lat:39.4617681,lng:-0.3728783,facing:180,open:0.65,type:"bar",hood:"Ruzafa",icon:"🍺",vibes:["Beer garden","Wine"],book:false,outdoorSeating:null,googleType:"bar",rating:4.4,ratingCount:193},
  {id:80,name:"Restaurante El Encuentro",lat:39.4714482,lng:-0.3776867,facing:180,open:0.7,type:"terrace",hood:"Ensanche",icon:"🌿",vibes:["Spanish","Wine","Cocktails"],book:true,outdoorSeating:true,googleType:"spanish_restaurant",rating:4.5,ratingCount:1388},
  {id:81,name:"Palace Fesol",lat:39.4685847,lng:-0.3715115,facing:180,open:0.7,type:"terrace",hood:"Ensanche",icon:"🌿",vibes:["Beer garden","Wine","Bookable"],book:true,outdoorSeating:false,googleType:"restaurant",rating:4.3,ratingCount:840},
  {id:82,name:"Restaurante Bouet",lat:39.463682299999995,lng:-0.37731,facing:180,open:0.7,type:"terrace",hood:"Ruzafa",icon:"🌿",vibes:["Beer garden","Wine","Cocktails"],book:true,outdoorSeating:true,googleType:"restaurant",rating:4.4,ratingCount:1429},
  {id:83,name:"VARQUÉS",lat:39.462107499999995,lng:-0.3732221,facing:180,open:0.7,type:"terrace",hood:"Ruzafa",icon:"🌿",vibes:["Beer garden","Wine","Cocktails"],book:true,outdoorSeating:true,googleType:"restaurant",rating:4.6,ratingCount:11457},
  {id:84,name:"Turqueta",lat:39.4665093,lng:-0.370811,facing:180,open:0.7,type:"terrace",hood:"Ruzafa",icon:"🌿",vibes:["Mediterranean","Wine","Cocktails"],book:true,outdoorSeating:false,googleType:"mediterranean_restaurant",rating:4.4,ratingCount:9856},
  {id:85,name:"El Camerino Ruzafa / Restaurante",lat:39.4622617,lng:-0.37323229999999996,facing:180,open:0.7,type:"terrace",hood:"Ruzafa",icon:"🌿",vibes:["Mediterranean","Wine","Cocktails"],book:true,outdoorSeating:true,googleType:"mediterranean_restaurant",rating:4.5,ratingCount:4458},
  {id:86,name:"Hechizos de Morgana Plaza de Toros",lat:39.4649077,lng:-0.3767665,facing:180,open:0.7,type:"terrace",hood:"Ruzafa",icon:"🌿",vibes:["Beer garden","Wine","Cocktails"],book:true,outdoorSeating:false,googleType:"restaurant",rating:4.5,ratingCount:1345},
  {id:87,name:"Gaspar",lat:39.4663434,lng:-0.369614,facing:180,open:0.7,type:"terrace",hood:"Ruzafa",icon:"🌿",vibes:["Beer garden","Wine","Cocktails"],book:true,outdoorSeating:false,googleType:"restaurant",rating:3.8,ratingCount:2476},
  {id:88,name:"Doña Petrona",lat:39.462568,lng:-0.3718189,facing:180,open:0.7,type:"terrace",hood:"Ruzafa",icon:"🌿",vibes:["Beer garden","Wine","Cocktails"],book:true,outdoorSeating:true,googleType:"restaurant",rating:4,ratingCount:2152},
  {id:89,name:"Labarra",lat:39.4655318,lng:-0.3697627,facing:180,open:0.7,type:"terrace",hood:"Ruzafa",icon:"🌿",vibes:["Beer garden","Wine","Cocktails"],book:true,outdoorSeating:true,googleType:"restaurant",rating:4.3,ratingCount:1009},
  {id:90,name:"La Casita de Sabino Valencia",lat:39.4650825,lng:-0.3716461,facing:180,open:0.7,type:"terrace",hood:"Ruzafa",icon:"🌿",vibes:["Beer garden","Wine","Bookable"],book:true,outdoorSeating:false,googleType:"restaurant",rating:4.5,ratingCount:410},
  {id:91,name:"Restaurante Flor Jamaica",lat:39.463700599999996,lng:-0.3819612,facing:180,open:0.7,type:"terrace",hood:"Ruzafa",icon:"🌿",vibes:["Beer garden","Wine","Cocktails"],book:true,outdoorSeating:null,googleType:"restaurant",rating:3,ratingCount:2},
  {id:92,name:"Moby Dick Valencia",lat:39.4625336,lng:-0.3761037,facing:180,open:0.65,type:"bar",hood:"Ruzafa",icon:"🍺",vibes:["Grill","Wine","Cocktails"],book:true,outdoorSeating:true,googleType:"bar_and_grill",rating:4.4,ratingCount:377},
  {id:93,name:"El Rus Entrepans",lat:39.4614559,lng:-0.3748722,facing:180,open:0.65,type:"bar",hood:"Ruzafa",icon:"🍺",vibes:["Beer garden","Wine","Cocktails"],book:false,outdoorSeating:true,googleType:"sandwich_shop",rating:4.1,ratingCount:1612},
  {id:94,name:"Cytrus Ruzafa",lat:39.463001,lng:-0.37433449999999996,facing:180,open:0.65,type:"bar",hood:"Ruzafa",icon:"🍺",vibes:["Grill","Wine","Cocktails"],book:true,outdoorSeating:true,googleType:"bar_and_grill",rating:4.4,ratingCount:467},
  {id:95,name:"Bar Royal 1981 - bar de tapas",lat:39.4631796,lng:-0.3800734,facing:180,open:0.65,type:"bar",hood:"Ruzafa",icon:"🍺",vibes:["Grill","Wine","Cocktails"],book:true,outdoorSeating:true,googleType:"bar_and_grill",rating:3.9,ratingCount:768},
  {id:96,name:"Bar Los Navarros",lat:39.463191699999996,lng:-0.374871,facing:180,open:0.65,type:"bar",hood:"Ruzafa",icon:"🍺",vibes:["Grill","Wine","Bookable"],book:true,outdoorSeating:null,googleType:"bar_and_grill",rating:4.2,ratingCount:625},
  {id:97,name:"Bodega los Ibéricos II",lat:39.4649186,lng:-0.37245219999999996,facing:180,open:0.65,type:"bar",hood:"Ruzafa",icon:"🍺",vibes:["Grill","Wine","Bookable"],book:true,outdoorSeating:true,googleType:"bar_and_grill",rating:4.3,ratingCount:48},
  {id:98,name:"Muvimas",lat:39.4697667,lng:-0.3811256,facing:180,open:0.65,type:"bar",hood:"Gran Via",icon:"🍺",vibes:["Grill","Wine","Bookable"],book:true,outdoorSeating:true,googleType:"bar_and_grill",rating:3.3,ratingCount:37},
  {id:99,name:"Maunaloa Café Bar - Billar",lat:39.464832099999995,lng:-0.3803474,facing:180,open:0.7,type:"terrace",hood:"Ruzafa",icon:"🌿",vibes:["Beer garden"],book:false,outdoorSeating:null,googleType:"restaurant",rating:4.1,ratingCount:279},
  {id:100,name:"El Rodamón de Russafa",lat:39.460899999999995,lng:-0.3745306,facing:180,open:0.7,type:"terrace",hood:"Ruzafa",icon:"🌿",vibes:["Mediterranean","Wine","Cocktails"],book:true,outdoorSeating:true,googleType:"mediterranean_restaurant",rating:4.3,ratingCount:3700},
  {id:101,name:"La Tasqueta del Mercat Ruzafa",lat:39.4616416,lng:-0.3706451,facing:180,open:0.7,type:"terrace",hood:"Ruzafa",icon:"🌿",vibes:["Beer garden","Wine","Bookable"],book:true,outdoorSeating:true,googleType:"restaurant",rating:4.2,ratingCount:2314},
  {id:102,name:"La Cantina de Ruzafa",lat:39.46042,lng:-0.3739489,facing:180,open:0.7,type:"terrace",hood:"Ruzafa",icon:"🌿",vibes:["Spanish","Wine","Bookable"],book:true,outdoorSeating:null,googleType:"spanish_restaurant",rating:4.6,ratingCount:1552},
  {id:103,name:"Improntas Restaurante",lat:39.462213899999995,lng:-0.37208739999999996,facing:180,open:0.7,type:"terrace",hood:"Ruzafa",icon:"🌿",vibes:["Beer garden","Wine","Bookable"],book:true,outdoorSeating:true,googleType:"italian_restaurant",rating:4.8,ratingCount:1140},
  {id:104,name:"Torre de 1990",lat:39.4623737,lng:-0.3705127,facing:180,open:0.7,type:"terrace",hood:"Ruzafa",icon:"🌿",vibes:["Beer garden","Wine","Cocktails"],book:true,outdoorSeating:true,googleType:"restaurant",rating:4.3,ratingCount:1481},
  {id:105,name:"El Almacén",lat:39.4611549,lng:-0.3746699,facing:180,open:0.7,type:"terrace",hood:"Ruzafa",icon:"🌿",vibes:["Beer garden","Wine","Cocktails"],book:true,outdoorSeating:true,googleType:"restaurant",rating:4.4,ratingCount:1672},
  {id:106,name:"Restaurante Casa Amadeo",lat:39.4621119,lng:-0.3757781,facing:180,open:0.65,type:"bar",hood:"Ruzafa",icon:"🍺",vibes:["Beer garden","Wine","Cocktails"],book:true,outdoorSeating:true,googleType:"bar",rating:3.8,ratingCount:1239},
  {id:107,name:"Cervecería Baden Baden",lat:39.463651,lng:-0.376194,facing:180,open:0.7,type:"terrace",hood:"Ruzafa",icon:"🌿",vibes:["Beer garden","Wine","Cocktails"],book:true,outdoorSeating:true,googleType:"german_restaurant",rating:4.5,ratingCount:1116},
  {id:108,name:"Restaurante Di Fredo",lat:39.4641071,lng:-0.3718284,facing:180,open:0.7,type:"terrace",hood:"Ruzafa",icon:"🌿",vibes:["Beer garden","Wine","Cocktails"],book:true,outdoorSeating:false,googleType:"restaurant",rating:4.4,ratingCount:893},
  {id:109,name:"Cuinar-te Ruzafa",lat:39.461410199999996,lng:-0.3753176,facing:180,open:0.7,type:"terrace",hood:"Ruzafa",icon:"🌿",vibes:["Beer garden","Wine","Cocktails"],book:true,outdoorSeating:true,googleType:"tapas_restaurant",rating:4.1,ratingCount:734},
  {id:110,name:"Restaurante Taberna Gallega",lat:39.4643903,lng:-0.37419179999999996,facing:180,open:0.7,type:"terrace",hood:"Ruzafa",icon:"🌿",vibes:["Beer garden","Wine","Bookable"],book:true,outdoorSeating:false,googleType:"restaurant",rating:4.2,ratingCount:602},
  {id:111,name:"VR-RUSSAFA",lat:39.4594465,lng:-0.37547169999999996,facing:180,open:0.7,type:"terrace",hood:"Ruzafa",icon:"🌿",vibes:["Spanish","Wine","Bookable"],book:true,outdoorSeating:true,googleType:"spanish_restaurant",rating:4.1,ratingCount:193},
  {id:112,name:"Bocatería Centro.",lat:39.462846899999995,lng:-0.3717159,facing:180,open:0.65,type:"bar",hood:"Ruzafa",icon:"🍺",vibes:["Beer garden","Wine","Bookable"],book:true,outdoorSeating:true,googleType:"bar",rating:2.8,ratingCount:64},
  {id:113,name:"Cafetería La Tahona",lat:39.463802699999995,lng:-0.38081290000000007,facing:180,open:0.65,type:"bar",hood:"Ruzafa",icon:"🍺",vibes:["Beer garden","Wine","Cocktails"],book:true,outdoorSeating:true,googleType:"cafe",rating:3.4,ratingCount:104},
  {id:114,name:"La Finestra",lat:39.4610542,lng:-0.3716992,facing:180,open:0.7,type:"terrace",hood:"Ruzafa",icon:"🌿",vibes:["Beer garden","Wine","Cocktails"],book:false,outdoorSeating:true,googleType:"pizza_restaurant",rating:4.6,ratingCount:4487},
  {id:115,name:"Masusa paella bar",lat:39.4601841,lng:-0.3744446,facing:180,open:0.7,type:"terrace",hood:"Ruzafa",icon:"🌿",vibes:["Beer garden","Wine","Cocktails"],book:true,outdoorSeating:true,googleType:"restaurant",rating:4.6,ratingCount:3568},
  {id:116,name:"MATOQUE",lat:39.460385599999995,lng:-0.3727485,facing:180,open:0.7,type:"terrace",hood:"Ruzafa",icon:"🌿",vibes:["Beer garden","Wine","Bookable"],book:true,outdoorSeating:true,googleType:"restaurant",rating:4.7,ratingCount:899},
  {id:117,name:"Aladroc taverna de peix",lat:39.459807,lng:-0.37579049999999997,facing:180,open:0.65,type:"bar",hood:"Ruzafa",icon:"🍺",vibes:["Beer garden","Wine","Bookable"],book:true,outdoorSeating:true,googleType:"bar",rating:4.5,ratingCount:1524},
  {id:118,name:"MAUI RUSSAFA",lat:39.4602036,lng:-0.37191520000000006,facing:180,open:0.7,type:"terrace",hood:"Ruzafa",icon:"🌿",vibes:["Beer garden","Wine","Cocktails"],book:true,outdoorSeating:true,googleType:"restaurant",rating:4.6,ratingCount:1581},
  {id:119,name:"De Ana Restaurant",lat:39.466147,lng:-0.3739278,facing:180,open:0.7,type:"terrace",hood:"Ruzafa",icon:"🌿",vibes:["Beer garden","Wine","Cocktails"],book:true,outdoorSeating:true,googleType:"korean_restaurant",rating:4.7,ratingCount:2873},
  {id:120,name:"Dos Estaciones",lat:39.4626851,lng:-0.370232,facing:180,open:0.7,type:"terrace",hood:"Ruzafa",icon:"🌿",vibes:["Beer garden","Wine","Cocktails"],book:true,outdoorSeating:true,googleType:"restaurant",rating:4.6,ratingCount:812},
  {id:121,name:"Fierro",lat:39.4626559,lng:-0.3727205,facing:180,open:0.7,type:"terrace",hood:"Ruzafa",icon:"🌿",vibes:["Mediterranean","Wine","Cocktails"],book:true,outdoorSeating:false,googleType:"mediterranean_restaurant",rating:4.8,ratingCount:412},
  {id:122,name:"La Anjana",lat:39.460438599999996,lng:-0.371787,facing:180,open:0.65,type:"bar",hood:"Ruzafa",icon:"🍺",vibes:["Beer garden","Wine","Cocktails"],book:true,outdoorSeating:true,googleType:"bar",rating:4.7,ratingCount:1146},
  {id:123,name:"Mood Food",lat:39.463851,lng:-0.370778,facing:180,open:0.7,type:"terrace",hood:"Ruzafa",icon:"🌿",vibes:["Mediterranean","Wine","Cocktails"],book:true,outdoorSeating:null,googleType:"mediterranean_restaurant",rating:4.6,ratingCount:714},
  {id:124,name:"Valencia",lat:39.4601858,lng:-0.3744471,facing:180,open:0.7,type:"terrace",hood:"Ruzafa",icon:"🌿",vibes:["Seafood","Wine"],book:false,outdoorSeating:null,googleType:"seafood_restaurant",rating:3.5,ratingCount:2},
  {id:125,name:"Frigus",lat:39.461883199999995,lng:-0.3707898,facing:180,open:0.75,type:"cafe",hood:"Ruzafa",icon:"☕",vibes:["Juice bar"],book:false,outdoorSeating:null,googleType:"juice_shop",rating:5,ratingCount:661},
  {id:126,name:"Frigus – Smoothies, Zumos Naturales, Açaí & Gofres en Valencia",lat:39.4620409,lng:-0.3706341,facing:180,open:0.75,type:"cafe",hood:"Ruzafa",icon:"☕",vibes:["Juice bar"],book:false,outdoorSeating:null,googleType:"juice_shop",rating:5,ratingCount:748},
  {id:127,name:"La Bien Parida de Ruzafa",lat:39.460022099999996,lng:-0.37426529999999997,facing:180,open:0.65,type:"bar",hood:"Ruzafa",icon:"🍺",vibes:["Grill","Wine","Cocktails"],book:true,outdoorSeating:true,googleType:"bar_and_grill",rating:4.2,ratingCount:2932},
  {id:128,name:"La Pizarra",lat:39.4607744,lng:-0.3719357,facing:180,open:0.7,type:"terrace",hood:"Ruzafa",icon:"🌿",vibes:["Beer garden","Wine","Cocktails"],book:true,outdoorSeating:true,googleType:"restaurant",rating:4.2,ratingCount:1112},
  {id:129,name:"DITALY",lat:39.4599589,lng:-0.3749744,facing:180,open:0.7,type:"terrace",hood:"Ruzafa",icon:"🌿",vibes:["Beer garden","Wine","Cocktails"],book:true,outdoorSeating:true,googleType:"italian_restaurant",rating:4.6,ratingCount:462},
  {id:130,name:"Bar Pascualín",lat:39.4586331,lng:-0.37496979999999996,facing:180,open:0.65,type:"bar",hood:"Ruzafa",icon:"🍺",vibes:["Grill","Wine","Bookable"],book:true,outdoorSeating:true,googleType:"bar_and_grill",rating:4.4,ratingCount:333},
  {id:131,name:"El Chiringuito de Ruzafa",lat:39.4587754,lng:-0.3745872,facing:180,open:0.65,type:"bar",hood:"Ruzafa",icon:"🍺",vibes:["Grill","Wine","Cocktails"],book:true,outdoorSeating:true,googleType:"bar_and_grill",rating:4.6,ratingCount:210},
  {id:132,name:"Trébol bar y restaurante",lat:39.46580230000001,lng:-0.3765103,facing:180,open:0.65,type:"bar",hood:"Ruzafa",icon:"🍺",vibes:["Grill","Wine"],book:false,outdoorSeating:null,googleType:"bar_and_grill",rating:4.7,ratingCount:58},
  {id:133,name:"Cirilo Amorós 2",lat:39.4661281,lng:-0.37411259999999996,facing:180,open:0.65,type:"bar",hood:"Ruzafa",icon:"🍺",vibes:["Grill","Wine"],book:false,outdoorSeating:null,googleType:"bar_and_grill"},
  {id:134,name:"La Salita de Begoña Rodrigo",lat:39.4625364,lng:-0.3694864,facing:180,open:0.7,type:"terrace",hood:"Ruzafa",icon:"🌿",vibes:["Beer garden","Wine","Cocktails"],book:true,outdoorSeating:true,googleType:"fine_dining_restaurant",rating:4.6,ratingCount:2105},
  {id:135,name:"Cafeteria Bombon",lat:39.4603797,lng:-0.36975349999999996,facing:180,open:0.65,type:"bar",hood:"Ruzafa",icon:"🍺",vibes:["Beer garden","Wine"],book:false,outdoorSeating:true,googleType:"cafe",rating:4.1,ratingCount:382},
  {id:136,name:"CAFETERÍA L´ANTIGA",lat:39.4579735,lng:-0.37278239999999996,facing:180,open:0.7,type:"terrace",hood:"Ruzafa",icon:"🌿",vibes:["Beer garden","Wine","Cocktails"],book:true,outdoorSeating:true,googleType:"restaurant",rating:4.2,ratingCount:458},
  {id:137,name:"Bar Magna",lat:39.4583495,lng:-0.37471499999999996,facing:180,open:0.65,type:"bar",hood:"Ruzafa",icon:"🍺",vibes:["Beer garden","Wine","Cocktails"],book:true,outdoorSeating:true,googleType:"bar",rating:4.6,ratingCount:63},
  {id:138,name:"Max Russafa Restaurante & Bar",lat:39.4600917,lng:-0.3714258,facing:180,open:0.7,type:"terrace",hood:"Ruzafa",icon:"🌿",vibes:["Beer garden","Wine","Cocktails"],book:true,outdoorSeating:true,googleType:"fusion_restaurant",rating:4.8,ratingCount:651},
  {id:139,name:"Trinchera",lat:39.4621985,lng:-0.3695985,facing:180,open:0.65,type:"bar",hood:"Ruzafa",icon:"🍺",vibes:["Grill","Wine","Cocktails"],book:true,outdoorSeating:true,googleType:"bar_and_grill",rating:4,ratingCount:575},
  {id:140,name:"Restaurante mexicano INSIEME",lat:39.4599526,lng:-0.37069769999999996,facing:180,open:0.7,type:"terrace",hood:"Ruzafa",icon:"🌿",vibes:["Beer garden","Wine","Cocktails"],book:true,outdoorSeating:null,googleType:"mexican_restaurant",rating:4.8,ratingCount:227},
  {id:141,name:"BAMBAR Cocina Mediterránea",lat:39.4591369,lng:-0.37283089999999997,facing:180,open:0.65,type:"bar",hood:"Ruzafa",icon:"🍺",vibes:["Grill","Wine","Cocktails"],book:true,outdoorSeating:true,googleType:"bar_and_grill",rating:4.8,ratingCount:188},
  {id:142,name:"EyJ",lat:39.456135599999996,lng:-0.37393679999999996,facing:180,open:0.65,type:"bar",hood:"Ruzafa",icon:"🍺",vibes:["Grill","Wine"],book:false,outdoorSeating:false,googleType:"bar_and_grill",rating:5,ratingCount:2},
  {id:143,name:"Casa Roberto",lat:39.4649077,lng:-0.36894849999999996,facing:180,open:0.7,type:"terrace",hood:"Ruzafa",icon:"🌿",vibes:["Spanish","Wine","Bookable"],book:true,outdoorSeating:false,googleType:"spanish_restaurant",rating:4.3,ratingCount:3063},
  {id:144,name:"GOYA GALLERY RESTAURANT",lat:39.464238099999996,lng:-0.36902840000000003,facing:180,open:0.7,type:"terrace",hood:"Ruzafa",icon:"🌿",vibes:["Mediterranean","Wine","Cocktails"],book:true,outdoorSeating:true,googleType:"mediterranean_restaurant",rating:4.5,ratingCount:3475},
  {id:145,name:"Restaurante Taberna Casa Juan",lat:39.464514,lng:-0.36772099999999996,facing:180,open:0.7,type:"terrace",hood:"Valencia",icon:"🌿",vibes:["Beer garden","Wine","Bookable"],book:true,outdoorSeating:true,googleType:"restaurant",rating:4.2,ratingCount:466},
  {id:146,name:"LA OFICINA DE CARITO Y GERMÁN",lat:39.462389,lng:-0.36615759999999997,facing:180,open:0.65,type:"bar",hood:"Valencia",icon:"🍺",vibes:["Grill","Wine","Cocktails"],book:true,outdoorSeating:true,googleType:"bar_and_grill",rating:4.4,ratingCount:1170},
  {id:147,name:"Cafetería Marabu",lat:39.46476090000001,lng:-0.3676162,facing:180,open:0.65,type:"bar",hood:"Valencia",icon:"🍺",vibes:["Outdoor seating"],book:false,outdoorSeating:null,googleType:"cafeteria",rating:4.2,ratingCount:254},
  {id:148,name:"BAR MANOLIN",lat:39.4589183,lng:-0.36830029999999997,facing:180,open:0.65,type:"bar",hood:"Ruzafa",icon:"🍺",vibes:["Grill","Wine","Bookable"],book:true,outdoorSeating:null,googleType:"bar_and_grill",rating:4,ratingCount:68},
  {id:149,name:"Canela",lat:39.4758333,lng:-0.38305560000000005,facing:180,open:0.7,type:"terrace",hood:"El Carmen",icon:"🌿",vibes:["Mediterranean","Wine","Cocktails"],book:true,outdoorSeating:true,googleType:"mediterranean_restaurant",rating:4.5,ratingCount:3556},
  {id:150,name:"El Forcat",lat:39.479040000000005,lng:-0.37707999999999997,facing:180,open:0.7,type:"terrace",hood:"El Carmen",icon:"🌿",vibes:["Mediterranean","Wine","Cocktails"],book:true,outdoorSeating:false,googleType:"mediterranean_restaurant",rating:4.2,ratingCount:2448},
  {id:151,name:"Sueño Andaluz",lat:39.4767284,lng:-0.38143269999999996,facing:180,open:0.7,type:"terrace",hood:"El Carmen",icon:"🌿",vibes:["Spanish","Wine","Cocktails"],book:true,outdoorSeating:true,googleType:"spanish_restaurant",rating:4.7,ratingCount:1680},
  {id:152,name:"La Cigrona Restaurante",lat:39.4781806,lng:-0.3764361,facing:180,open:0.7,type:"terrace",hood:"El Carmen",icon:"🌿",vibes:["Mediterranean","Wine","Cocktails"],book:true,outdoorSeating:true,googleType:"mediterranean_restaurant",rating:4.2,ratingCount:1321},
  {id:153,name:"JamónJamón Restaurant",lat:39.4758649,lng:-0.38007769999999996,facing:180,open:0.7,type:"terrace",hood:"El Carmen",icon:"🌿",vibes:["Beer garden","Wine","Bookable"],book:true,outdoorSeating:false,googleType:"restaurant",rating:4.6,ratingCount:1660},
  {id:154,name:"La Moma",lat:39.4752102,lng:-0.376216,facing:180,open:0.7,type:"terrace",hood:"El Carmen",icon:"🌿",vibes:["Beer garden","Wine","Cocktails"],book:true,outdoorSeating:true,googleType:"restaurant",rating:4.4,ratingCount:3274},
  {id:155,name:"Sidrería El Molinón",lat:39.4759181,lng:-0.38013949999999996,facing:180,open:0.65,type:"bar",hood:"El Carmen",icon:"🍺",vibes:["Beer garden","Wine","Bookable"],book:true,outdoorSeating:false,googleType:"bar",rating:4.4,ratingCount:2154},
  {id:156,name:"Arandinos Tapas Valencia",lat:39.47821520000001,lng:-0.3773548,facing:180,open:0.65,type:"bar",hood:"El Carmen",icon:"🍺",vibes:["Beer garden","Wine","Cocktails"],book:true,outdoorSeating:true,googleType:"bar",rating:4.4,ratingCount:1463},
  {id:157,name:"La Taberna de Marisa",lat:39.4764293,lng:-0.3796574,facing:180,open:0.7,type:"terrace",hood:"El Carmen",icon:"🌿",vibes:["Mediterranean","Wine","Cocktails"],book:true,outdoorSeating:true,googleType:"mediterranean_restaurant",rating:4.1,ratingCount:2301},
  {id:158,name:"Restaurante Tapería Pulpería Ligazón",lat:39.47435,lng:-0.383057,facing:180,open:0.7,type:"terrace",hood:"El Carmen",icon:"🌿",vibes:["Beer garden","Wine","Cocktails"],book:true,outdoorSeating:true,googleType:"restaurant",rating:4.6,ratingCount:1738},
  {id:159,name:"Restaurante Yuso",lat:39.479180299999996,lng:-0.378915,facing:180,open:0.7,type:"terrace",hood:"El Carmen",icon:"🌿",vibes:["Beer garden","Wine","Bookable"],book:true,outdoorSeating:true,googleType:"restaurant",rating:4.3,ratingCount:3174},
  {id:160,name:"Kukla - Middle Eastern Cuisine",lat:39.4785749,lng:-0.37692739999999997,facing:180,open:0.7,type:"terrace",hood:"El Carmen",icon:"🌿",vibes:["Beer garden","Wine","Cocktails"],book:true,outdoorSeating:true,googleType:"restaurant",rating:4.7,ratingCount:1708},
  {id:161,name:"Saona plaza de la virgen",lat:39.4767964,lng:-0.3750215,facing:180,open:0.7,type:"terrace",hood:"El Carmen",icon:"🌿",vibes:["Mediterranean","Wine","Cocktails"],book:true,outdoorSeating:true,googleType:"mediterranean_restaurant",rating:4.2,ratingCount:5921},
  {id:162,name:"La Calita",lat:39.4746642,lng:-0.3763823,facing:180,open:0.7,type:"terrace",hood:"El Carmen",icon:"🌿",vibes:["Mediterranean","Wine","Bookable"],book:true,outdoorSeating:true,googleType:"mediterranean_restaurant",rating:4.5,ratingCount:1170},
  {id:163,name:"Kuzina",lat:39.477173,lng:-0.375465,facing:180,open:0.7,type:"terrace",hood:"El Carmen",icon:"🌿",vibes:["Beer garden","Wine","Cocktails"],book:true,outdoorSeating:true,googleType:"restaurant",rating:4.5,ratingCount:2587},
  {id:164,name:"Restaurante Yuso I",lat:39.478595,lng:-0.37740599999999996,facing:180,open:0.7,type:"terrace",hood:"El Carmen",icon:"🌿",vibes:["Mediterranean","Wine","Bookable"],book:true,outdoorSeating:true,googleType:"mediterranean_restaurant",rating:4.4,ratingCount:2296},
  {id:165,name:"Taberna La Sénia",lat:39.474748,lng:-0.3776844,facing:180,open:0.7,type:"terrace",hood:"El Carmen",icon:"🌿",vibes:["Beer garden","Wine","Cocktails"],book:true,outdoorSeating:true,googleType:"tapas_restaurant",rating:4.4,ratingCount:1579},
  {id:166,name:"HOMMUS FALAFEL RESTAURANTE ÁRABE EL CARMEN",lat:39.4760223,lng:-0.3765922,facing:180,open:0.7,type:"terrace",hood:"El Carmen",icon:"🌿",vibes:["Beer garden","Wine","Cocktails"],book:true,outdoorSeating:true,googleType:"middle_eastern_restaurant",rating:4.7,ratingCount:1260},
  {id:167,name:"La Ostrería del Carmen",lat:39.477810999999996,lng:-0.3806074,facing:180,open:0.65,type:"bar",hood:"El Carmen",icon:"🍺",vibes:["Beer garden","Wine","Cocktails"],book:true,outdoorSeating:false,googleType:"bar",rating:4.5,ratingCount:284},
  {id:168,name:"Almalibre Açaí House El Carmen",lat:39.4790656,lng:-0.3774671,facing:180,open:0.7,type:"terrace",hood:"El Carmen",icon:"🌿",vibes:["Beer garden","Wine","Bookable"],book:true,outdoorSeating:true,googleType:"vegetarian_restaurant",rating:4.6,ratingCount:4121},
  {id:169,name:"El Muelle Valencia",lat:39.475352699999995,lng:-0.3855588,facing:180,open:0.7,type:"terrace",hood:"Valencia",icon:"🌿",vibes:["Beer garden","Wine","Cocktails"],book:true,outdoorSeating:false,googleType:"restaurant",rating:4.5,ratingCount:239},
  {id:170,name:"Gastrobar A Fer La Ma",lat:39.4745462,lng:-0.3853184,facing:180,open:0.7,type:"terrace",hood:"Valencia",icon:"🌿",vibes:["Beer garden","Wine","Cocktails"],book:true,outdoorSeating:true,googleType:"restaurant",rating:4.6,ratingCount:807},
  {id:171,name:"BoBoBar",lat:39.4789475,lng:-0.3776423,facing:180,open:0.65,type:"bar",hood:"El Carmen",icon:"🍺",vibes:["Beer garden","Wine","Cocktails"],book:true,outdoorSeating:true,googleType:"bar",rating:4.6,ratingCount:613},
  {id:172,name:"Bar Richard",lat:39.476389999999995,lng:-0.38255269999999997,facing:180,open:0.65,type:"bar",hood:"El Carmen",icon:"🍺",vibes:["Beer garden","Wine","Bookable"],book:true,outdoorSeating:false,googleType:"bar",rating:4.6,ratingCount:524},
  {id:173,name:"Autenticraft",lat:39.4778812,lng:-0.379955,facing:180,open:0.65,type:"bar",hood:"El Carmen",icon:"🍺",vibes:["Beer garden","Wine","Cocktails"],book:true,outdoorSeating:true,googleType:"brewpub",rating:4.8,ratingCount:187},
  {id:174,name:"Restaurante El Tap S.C",lat:39.4789076,lng:-0.3768688,facing:180,open:0.7,type:"terrace",hood:"El Carmen",icon:"🌿",vibes:["Beer garden","Wine","Bookable"],book:true,outdoorSeating:true,googleType:"restaurant",rating:4.6,ratingCount:384},
  {id:175,name:"Taberna Ciutat Vella",lat:39.477298,lng:-0.38355059999999996,facing:180,open:0.65,type:"bar",hood:"El Carmen",icon:"🍺",vibes:["Grill","Wine","Bookable"],book:true,outdoorSeating:true,googleType:"bar_and_grill",rating:3.8,ratingCount:187},
  {id:176,name:"LAVOE Arroz y Mar",lat:39.473063,lng:-0.373347,facing:180,open:0.7,type:"terrace",hood:"Ensanche",icon:"🌿",vibes:["Beer garden","Wine","Bookable"],book:true,outdoorSeating:false,googleType:"korean_restaurant",rating:3.9,ratingCount:876},
  {id:177,name:"El Trovador (Valencia)",lat:39.468243199999996,lng:-0.3673647,facing:180,open:0.7,type:"terrace",hood:"Ensanche",icon:"🌿",vibes:["Beer garden","Wine","Bookable"],book:true,outdoorSeating:null,googleType:"restaurant",rating:4.7,ratingCount:2779},
  {id:178,name:"Saona Gran Vía (Valencia)",lat:39.466706599999995,lng:-0.3687856,facing:180,open:0.7,type:"terrace",hood:"Ruzafa",icon:"🌿",vibes:["Mediterranean","Wine","Cocktails"],book:true,outdoorSeating:true,googleType:"mediterranean_restaurant",rating:4.4,ratingCount:6750},
  {id:179,name:"Restaurante RiFF",lat:39.4656743,lng:-0.3686544,facing:180,open:0.7,type:"terrace",hood:"Ruzafa",icon:"🌿",vibes:["Beer garden","Wine","Cocktails"],book:true,outdoorSeating:false,googleType:"restaurant",rating:4.5,ratingCount:974},
  {id:180,name:"Mi Cub",lat:39.4689842,lng:-0.3680078,facing:180,open:0.7,type:"terrace",hood:"Ensanche",icon:"🌿",vibes:["Beer garden","Wine","Cocktails"],book:false,outdoorSeating:true,googleType:"restaurant",rating:3.9,ratingCount:846},
  {id:181,name:"The Point",lat:39.4723362,lng:-0.37599089999999996,facing:180,open:0.65,type:"bar",hood:"Ensanche",icon:"🍺",vibes:["Grill","Wine","Cocktails"],book:true,outdoorSeating:true,googleType:"bar_and_grill",rating:4.1,ratingCount:84},
  {id:182,name:"Armonía",lat:39.471897,lng:-0.3773952,facing:180,open:0.7,type:"terrace",hood:"Ensanche",icon:"🌿",vibes:["Spanish","Wine","Cocktails"],book:true,outdoorSeating:true,googleType:"spanish_restaurant",rating:4.1,ratingCount:770},
  {id:183,name:"Restaurante Taberna Las Meninas",lat:39.4716625,lng:-0.3755226,facing:180,open:0.65,type:"bar",hood:"Ensanche",icon:"🍺",vibes:["Beer garden","Wine","Bookable"],book:true,outdoorSeating:true,googleType:"bar",rating:4.3,ratingCount:1665},
  {id:184,name:"Restaurante Camaleón",lat:39.464421,lng:-0.3834065,facing:180,open:0.7,type:"terrace",hood:"Gran Via",icon:"🌿",vibes:["Beer garden","Wine","Cocktails"],book:true,outdoorSeating:true,googleType:"restaurant",rating:4.5,ratingCount:3108},
  {id:185,name:"Divorare",lat:39.4707114,lng:-0.3778352,facing:180,open:0.65,type:"bar",hood:"Ensanche",icon:"🍺",vibes:["Beer garden"],book:false,outdoorSeating:false,googleType:"meal_takeaway",rating:4.7,ratingCount:779},
  {id:186,name:"Restaurante italiano - pizzería - Ris8tto",lat:39.4681164,lng:-0.3759048,facing:180,open:0.7,type:"terrace",hood:"Ensanche",icon:"🌿",vibes:["Beer garden","Wine","Cocktails"],book:true,outdoorSeating:true,googleType:"italian_restaurant",rating:4.6,ratingCount:4456},
  {id:187,name:"Cova Blanca",lat:39.467962799999995,lng:-0.38504639999999996,facing:180,open:0.7,type:"terrace",hood:"Gran Via",icon:"🌿",vibes:["Beer garden","Wine","Bookable"],book:true,outdoorSeating:false,googleType:"restaurant",rating:4.4,ratingCount:293},
  {id:188,name:"El Huey - C/ de San Francesc de Borja",lat:39.4662186,lng:-0.38479159999999996,facing:180,open:0.7,type:"terrace",hood:"Gran Via",icon:"🌿",vibes:["Beer garden","Wine","Cocktails"],book:true,outdoorSeating:true,googleType:"restaurant",rating:4.7,ratingCount:464},
  {id:189,name:"LOS SUEÑOS DE VERO",lat:39.4673483,lng:-0.3848598,facing:180,open:0.65,type:"bar",hood:"Gran Via",icon:"🍺",vibes:["Grill","Wine","Bookable"],book:true,outdoorSeating:null,googleType:"bar_and_grill",rating:5,ratingCount:26},
  {id:190,name:"Bar Hispan Drink Food",lat:39.470360199999995,lng:-0.3856473,facing:180,open:0.65,type:"bar",hood:"Valencia",icon:"🍺",vibes:["Grill","Wine","Bookable"],book:true,outdoorSeating:null,googleType:"bar_and_grill",rating:4.1,ratingCount:8},
  {id:191,name:"Cocolinda",lat:39.4744099,lng:-0.36437240000000004,facing:180,open:0.7,type:"terrace",hood:"Alameda",icon:"🌿",vibes:["Mediterranean","Wine","Cocktails"],book:true,outdoorSeating:true,googleType:"mediterranean_restaurant",rating:4,ratingCount:2505},
  {id:192,name:"Tria Restaurant",lat:39.472487099999995,lng:-0.36822450000000007,facing:180,open:0.7,type:"terrace",hood:"Ensanche",icon:"🌿",vibes:["Spanish","Wine","Bookable"],book:true,outdoorSeating:false,googleType:"spanish_restaurant",rating:4.4,ratingCount:1732},
  {id:193,name:"Tasquita del mar",lat:39.4739789,lng:-0.3741559,facing:180,open:0.65,type:"bar",hood:"El Carmen",icon:"🍺",vibes:["Beer garden","Wine","Cocktails"],book:true,outdoorSeating:true,googleType:"bar",rating:4.6,ratingCount:1952},
  {id:194,name:"Quiosco La Pérgola",lat:39.476593,lng:-0.3667435,facing:180,open:0.7,type:"terrace",hood:"Alameda",icon:"🌿",vibes:["Mediterranean","Wine"],book:false,outdoorSeating:true,googleType:"mediterranean_restaurant",rating:4.6,ratingCount:2847},
  {id:195,name:"Hotel Hospes Palau de la Mar | Valencia",lat:39.470954899999995,lng:-0.3666431,facing:180,open:0.65,type:"bar",hood:"Ensanche",icon:"🍺",vibes:["Outdoor seating"],book:false,outdoorSeating:null,googleType:"hotel",rating:4.6,ratingCount:2204},
  {id:196,name:"Somos Raro | Restaurante diferente en Valencia - Alameda",lat:39.475176399999995,lng:-0.36492399999999997,facing:180,open:0.7,type:"terrace",hood:"Alameda",icon:"🌿",vibes:["Beer garden","Wine","Bookable"],book:true,outdoorSeating:null,googleType:"restaurant",rating:4.5,ratingCount:882},
  {id:197,name:"Ostrabar Valencia",lat:39.468986699999995,lng:-0.3657293,facing:180,open:0.65,type:"bar",hood:"Valencia",icon:"🍺",vibes:["Beer garden","Wine","Bookable"],book:true,outdoorSeating:false,googleType:"bar",rating:4.6,ratingCount:1020},
  {id:198,name:"INFORMAL VADEBO TABERNA RESTAURANTE",lat:39.468865,lng:-0.3659169,facing:180,open:0.65,type:"bar",hood:"Valencia",icon:"🍺",vibes:["Beer garden","Wine","Bookable"],book:true,outdoorSeating:null,googleType:"bar",rating:4.4,ratingCount:111},
  {id:199,name:"BUENAZO Sanguchería - Street Food Peruano Valencia",lat:39.4727725,lng:-0.3671082,facing:180,open:0.7,type:"terrace",hood:"Ensanche",icon:"🌿",vibes:["Beer garden"],book:false,outdoorSeating:null,googleType:"peruvian_restaurant",rating:4.8,ratingCount:178},
  {id:200,name:"La Peluda",lat:39.4726406,lng:-0.3633608,facing:180,open:0.65,type:"bar",hood:"Alameda",icon:"🍺",vibes:["Grill","Wine","Cocktails"],book:true,outdoorSeating:true,googleType:"bar_and_grill",rating:3.6,ratingCount:1109},
  {id:201,name:"Jamón del Medio",lat:39.471266799999995,lng:-0.3672959,facing:180,open:0.65,type:"bar",hood:"Ensanche",icon:"🍺",vibes:["Grill","Wine","Bookable"],book:true,outdoorSeating:true,googleType:"bar_and_grill",rating:4.5,ratingCount:1846},
  {id:202,name:"Daniel's Cervecería - Restaurante",lat:39.4779736,lng:-0.3657236,facing:180,open:0.65,type:"bar",hood:"Alameda",icon:"🍺",vibes:["Grill","Wine","Bookable"],book:true,outdoorSeating:true,googleType:"bar_and_grill",rating:4.3,ratingCount:175},
  {id:203,name:"Palau 11",lat:39.4753518,lng:-0.3733826,facing:180,open:0.65,type:"bar",hood:"Alameda",icon:"🍺",vibes:["Grill","Wine","Bookable"],book:true,outdoorSeating:true,googleType:"bar_and_grill",rating:3.8,ratingCount:438},
  {id:204,name:"Nou Micalet",lat:39.4762929,lng:-0.3756056,facing:180,open:0.65,type:"bar",hood:"El Carmen",icon:"🍺",vibes:["Grill","Wine","Cocktails"],book:true,outdoorSeating:true,googleType:"bar_and_grill",rating:3.1,ratingCount:434},
  {id:205,name:"Cervecería Majo's",lat:39.475718799999996,lng:-0.36394879999999996,facing:180,open:0.65,type:"bar",hood:"Alameda",icon:"🍺",vibes:["Grill","Wine","Bookable"],book:true,outdoorSeating:true,googleType:"bar_and_grill",rating:4.3,ratingCount:144},
  {id:206,name:"Taberna Teca - Restaurante | Enoteca en Valencia",lat:39.4646824,lng:-0.3867275,facing:180,open:0.65,type:"bar",hood:"Gran Via",icon:"🍺",vibes:["Beer garden","Wine","Cocktails"],book:true,outdoorSeating:true,googleType:"bar",rating:4.5,ratingCount:944},
  {id:207,name:"Nuevo Cuenca",lat:39.465438299999995,lng:-0.3870511,facing:180,open:0.7,type:"terrace",hood:"Gran Via",icon:"🌿",vibes:["Spanish","Wine","Cocktails"],book:true,outdoorSeating:true,googleType:"spanish_restaurant",rating:4.2,ratingCount:1386},
  {id:208,name:"Maluquer Quattro",lat:39.4629949,lng:-0.3853618,facing:180,open:0.7,type:"terrace",hood:"Gran Via",icon:"🌿",vibes:["Mediterranean","Wine","Cocktails"],book:true,outdoorSeating:null,googleType:"mediterranean_restaurant",rating:4.6,ratingCount:683},
  {id:209,name:"El Pederniz",lat:39.4625443,lng:-0.3839903,facing:180,open:0.7,type:"terrace",hood:"Gran Via",icon:"🌿",vibes:["Beer garden","Wine","Cocktails"],book:true,outdoorSeating:true,googleType:"restaurant",rating:4.4,ratingCount:1205},
  {id:210,name:"Resto - Bar Camiri",lat:39.4690833,lng:-0.3879832,facing:180,open:0.7,type:"terrace",hood:"Gran Via",icon:"🌿",vibes:["Beer garden","Wine","Cocktails"],book:true,outdoorSeating:true,googleType:"restaurant",rating:4.4,ratingCount:974},
  {id:211,name:"Restaurante Orson",lat:39.4690569,lng:-0.38799059999999996,facing:180,open:0.7,type:"terrace",hood:"Gran Via",icon:"🌿",vibes:["Beer garden","Wine","Cocktails"],book:true,outdoorSeating:true,googleType:"peruvian_restaurant",rating:4.4,ratingCount:483},
  {id:212,name:"Comidas El Rubio",lat:39.4676731,lng:-0.3827411,facing:180,open:0.7,type:"terrace",hood:"Gran Via",icon:"🌿",vibes:["Outdoor seating"],book:false,outdoorSeating:false,googleType:"restaurant",rating:3.9,ratingCount:303},
  {id:213,name:"Nuevo Tortajada",lat:39.4663502,lng:-0.389812,facing:180,open:0.7,type:"terrace",hood:"Gran Via",icon:"🌿",vibes:["Beer garden","Wine","Cocktails"],book:true,outdoorSeating:true,googleType:"restaurant",rating:4.4,ratingCount:142},
  {id:214,name:"Nova Utopia",lat:39.462257199999996,lng:-0.38805839999999997,facing:180,open:0.7,type:"terrace",hood:"Gran Via",icon:"🌿",vibes:["Beer garden","Wine","Cocktails"],book:true,outdoorSeating:true,googleType:"restaurant",rating:4.1,ratingCount:68},
  {id:215,name:"Sabrosura",lat:39.469546699999995,lng:-0.3803715,facing:180,open:0.65,type:"bar",hood:"Gran Via",icon:"🍺",vibes:["Outdoor seating"],book:false,outdoorSeating:null,googleType:"catering_service",rating:4.5,ratingCount:6},
  {id:216,name:"Barbarela",lat:39.4689037,lng:-0.38594259999999997,facing:180,open:0.7,type:"terrace",hood:"Gran Via",icon:"🌿",vibes:["Beer garden","Wine","Cocktails"],book:true,outdoorSeating:false,googleType:"restaurant",rating:3.9,ratingCount:1226},
  {id:217,name:"Asador La Vid",lat:39.4658046,lng:-0.3859859,facing:180,open:0.7,type:"terrace",hood:"Gran Via",icon:"🌿",vibes:["Beer garden","Wine","Cocktails"],book:true,outdoorSeating:false,googleType:"barbecue_restaurant",rating:4.5,ratingCount:537},
  {id:218,name:"Pizzeria Spacca Napoli",lat:39.4687255,lng:-0.38985169999999997,facing:180,open:0.7,type:"terrace",hood:"Gran Via",icon:"🌿",vibes:["Beer garden","Wine","Cocktails"],book:true,outdoorSeating:true,googleType:"pizza_restaurant",rating:4.1,ratingCount:1714},
  {id:219,name:"La Mezcla Perfecta",lat:39.46749030000001,lng:-0.3850145,facing:180,open:0.7,type:"terrace",hood:"Gran Via",icon:"🌿",vibes:["Beer garden","Wine","Bookable"],book:true,outdoorSeating:true,googleType:"pizza_restaurant",rating:4.7,ratingCount:520},
  {id:220,name:"Dempanadas",lat:39.466833,lng:-0.3859859,facing:180,open:0.7,type:"terrace",hood:"Gran Via",icon:"🌿",vibes:["Beer garden","Wine","Bookable"],book:true,outdoorSeating:true,googleType:"restaurant",rating:4.5,ratingCount:746},
  {id:221,name:"Restaurante Pizzería Fontel.la",lat:39.4652501,lng:-0.3799533,facing:180,open:0.7,type:"terrace",hood:"Ruzafa",icon:"🌿",vibes:["Beer garden","Wine","Bookable"],book:true,outdoorSeating:false,googleType:"pizza_restaurant",rating:4.6,ratingCount:267},
  {id:222,name:"HAWAIKA",lat:39.4691052,lng:-0.3890527,facing:180,open:0.65,type:"bar",hood:"Gran Via",icon:"🍺",vibes:["Beer garden","Cocktails","Bookable"],book:true,outdoorSeating:false,googleType:"cocktail_bar",rating:4.4,ratingCount:2698},
  {id:223,name:"JALEO RESTAURANTE",lat:39.464269,lng:-0.38658899999999996,facing:180,open:0.7,type:"terrace",hood:"Gran Via",icon:"🌿",vibes:["Beer garden","Wine","Cocktails"],book:true,outdoorSeating:true,googleType:"restaurant",rating:4.8,ratingCount:908},
  {id:224,name:"Pizza palleter33",lat:39.4702944,lng:-0.3873146,facing:180,open:0.7,type:"terrace",hood:"Valencia",icon:"🌿",vibes:["Beer garden","Wine","Cocktails"],book:true,outdoorSeating:true,googleType:"pizza_restaurant",rating:4.2,ratingCount:778},
  {id:225,name:"RESTAURANTE LA MAMMA",lat:39.4700243,lng:-0.38856609999999997,facing:180,open:0.7,type:"terrace",hood:"Valencia",icon:"🌿",vibes:["Beer garden","Wine","Bookable"],book:true,outdoorSeating:null,googleType:"restaurant",rating:4.3,ratingCount:19},
  {id:226,name:"Chipi bar",lat:39.463046,lng:-0.386451,facing:180,open:0.65,type:"bar",hood:"Gran Via",icon:"🍺",vibes:["Grill","Wine","Cocktails"],book:true,outdoorSeating:true,googleType:"bar_and_grill",rating:5,ratingCount:66},
  {id:227,name:"A Menos Cuarto",lat:39.4701107,lng:-0.3887017,facing:180,open:0.65,type:"bar",hood:"Valencia",icon:"🍺",vibes:["Beer garden","Wine","Cocktails"],book:true,outdoorSeating:true,googleType:"bar",rating:4.2,ratingCount:1198},
  {id:228,name:"Easo Berri | Restaurante Vasco",lat:39.4696004,lng:-0.3893546,facing:180,open:0.7,type:"terrace",hood:"Gran Via",icon:"🌿",vibes:["Beer garden","Wine","Bookable"],book:true,outdoorSeating:false,googleType:"basque_restaurant",rating:4.6,ratingCount:843},
  {id:229,name:"Restaurante Milán",lat:39.467222199999995,lng:-0.39249999999999996,facing:180,open:0.7,type:"terrace",hood:"Valencia",icon:"🌿",vibes:["Beer garden","Wine","Cocktails"],book:true,outdoorSeating:null,googleType:"restaurant",rating:4.7,ratingCount:687},
  {id:230,name:"Restaurante Albarracín",lat:39.4660034,lng:-0.3913067,facing:180,open:0.7,type:"terrace",hood:"Valencia",icon:"🌿",vibes:["Mediterranean","Wine","Cocktails"],book:true,outdoorSeating:true,googleType:"mediterranean_restaurant",rating:3.7,ratingCount:739},
  {id:231,name:"Eladio",lat:39.4665794,lng:-0.3928047,facing:180,open:0.7,type:"terrace",hood:"Valencia",icon:"🌿",vibes:["Spanish","Wine","Cocktails"],book:true,outdoorSeating:false,googleType:"spanish_restaurant",rating:4.5,ratingCount:387},
  {id:232,name:"El Rogle",lat:39.4709134,lng:-0.39005799999999996,facing:180,open:0.65,type:"bar",hood:"Valencia",icon:"🍺",vibes:["Grill","Wine","Bookable"],book:true,outdoorSeating:true,googleType:"bar_and_grill",rating:4.5,ratingCount:380},
  {id:233,name:"La Blonda Resto - Bar",lat:39.4714299,lng:-0.39137849999999996,facing:180,open:0.65,type:"bar",hood:"Valencia",icon:"🍺",vibes:["Grill","Wine","Bookable"],book:true,outdoorSeating:true,googleType:"bar_and_grill",rating:4,ratingCount:296},
  {id:234,name:"La Taula de Paula | Asador Valencia",lat:39.4697938,lng:-0.3897327,facing:180,open:0.7,type:"terrace",hood:"Gran Via",icon:"🌿",vibes:["Beer garden","Wine","Cocktails"],book:true,outdoorSeating:false,googleType:"restaurant",rating:4,ratingCount:1223},
  {id:235,name:"Charlie Brownie Restaurante.",lat:39.4707094,lng:-0.3898487,facing:180,open:0.7,type:"terrace",hood:"Valencia",icon:"🌿",vibes:["Beer garden","Wine","Bookable"],book:true,outdoorSeating:true,googleType:"restaurant",rating:4.7,ratingCount:774},
  {id:236,name:"La Bodegueta de Joan Llorenç",lat:39.4700917,lng:-0.3891861,facing:180,open:0.65,type:"bar",hood:"Valencia",icon:"🍺",vibes:["Beer garden","Wine","Cocktails"],book:true,outdoorSeating:true,googleType:"bar",rating:4.2,ratingCount:1386},
  {id:237,name:"Alcantara Bistrot",lat:39.4701123,lng:-0.3897441,facing:180,open:0.7,type:"terrace",hood:"Valencia",icon:"🌿",vibes:["Mediterranean","Wine","Cocktails"],book:true,outdoorSeating:false,googleType:"mediterranean_restaurant",rating:4.7,ratingCount:448},
  {id:238,name:"Comidas Garrido",lat:39.468964799999995,lng:-0.39117589999999997,facing:180,open:0.65,type:"bar",hood:"Valencia",icon:"🍺",vibes:["Bookable"],book:true,outdoorSeating:false,googleType:"meal_takeaway",rating:4.4,ratingCount:599},
  {id:239,name:"Bar Amics Meus",lat:39.4716561,lng:-0.38844839999999997,facing:180,open:0.65,type:"bar",hood:"Valencia",icon:"🍺",vibes:["Beer garden","Wine","Cocktails"],book:true,outdoorSeating:true,googleType:"bar",rating:4,ratingCount:461},
  {id:240,name:"Momoas",lat:39.4703,lng:-0.38916,facing:180,open:0.7,type:"terrace",hood:"Valencia",icon:"🌿",vibes:["Beer garden","Wine","Cocktails"],book:true,outdoorSeating:true,googleType:"restaurant",rating:4.7,ratingCount:303},
  {id:241,name:"Umami Bistro Bar",lat:39.471433399999995,lng:-0.3883353,facing:180,open:0.7,type:"terrace",hood:"Valencia",icon:"🌿",vibes:["Beer garden","Wine","Bookable"],book:true,outdoorSeating:null,googleType:"restaurant",rating:4.6,ratingCount:223},
  {id:242,name:"La taberna de Kalixto",lat:39.471100199999995,lng:-0.3891186,facing:180,open:0.65,type:"bar",hood:"Valencia",icon:"🍺",vibes:["Beer garden","Wine","Bookable"],book:true,outdoorSeating:true,googleType:"bar",rating:3.8,ratingCount:271},
  {id:243,name:"Paradise Mediterraneo",lat:39.4683856,lng:-0.3917655,facing:180,open:0.65,type:"bar",hood:"Valencia",icon:"🍺",vibes:["Grill","Wine","Bookable"],book:true,outdoorSeating:true,googleType:"bar_and_grill",rating:4.6,ratingCount:89},
  {id:244,name:"Carmen De Ronda",lat:39.4684551,lng:-0.3917488,facing:180,open:0.65,type:"bar",hood:"Valencia",icon:"🍺",vibes:["Grill","Wine","Cocktails"],book:true,outdoorSeating:true,googleType:"bar_and_grill",rating:4.3,ratingCount:530},
  {id:245,name:"Hamburguesería Oro",lat:39.467588,lng:-0.3922077,facing:180,open:0.65,type:"bar",hood:"Valencia",icon:"🍺",vibes:["Grill","Wine","Bookable"],book:true,outdoorSeating:true,googleType:"bar_and_grill",rating:3.2,ratingCount:34},
  {id:246,name:"CASA CLEMÈNCIA",lat:39.4804411,lng:-0.35797049999999997,facing:180,open:0.7,type:"terrace",hood:"Benimaclet",icon:"🌿",vibes:["Mediterranean","Wine","Bookable"],book:true,outdoorSeating:true,googleType:"mediterranean_restaurant",rating:3.9,ratingCount:2189},
  {id:247,name:"El Carabasser",lat:39.4846375,lng:-0.3592258,facing:180,open:0.65,type:"bar",hood:"Benimaclet",icon:"🍺",vibes:["Beer garden","Wine","Bookable"],book:true,outdoorSeating:true,googleType:"bar",rating:4.3,ratingCount:1241},
  {id:248,name:"El Gastrónomo",lat:39.4826616,lng:-0.3609207,facing:180,open:0.7,type:"terrace",hood:"Benimaclet",icon:"🌿",vibes:["Beer garden","Wine","Cocktails"],book:true,outdoorSeating:false,googleType:"restaurant",rating:4.6,ratingCount:905},
  {id:249,name:"Asador Aurora",lat:39.4829821,lng:-0.3641333,facing:180,open:0.7,type:"terrace",hood:"Benimaclet",icon:"🌿",vibes:["Spanish","Wine","Cocktails"],book:true,outdoorSeating:true,googleType:"spanish_restaurant",rating:4.4,ratingCount:749},
  {id:250,name:"Dolium",lat:39.481635499999996,lng:-0.35532729999999996,facing:180,open:0.7,type:"terrace",hood:"Benimaclet",icon:"🌿",vibes:["Beer garden","Wine","Cocktails"],book:true,outdoorSeating:false,googleType:"restaurant",rating:4.7,ratingCount:575},
  {id:251,name:"Casa Gallega El Rey del Bacalao",lat:39.4832891,lng:-0.3616754,facing:180,open:0.7,type:"terrace",hood:"Benimaclet",icon:"🌿",vibes:["Beer garden","Wine","Cocktails"],book:true,outdoorSeating:true,googleType:"restaurant",rating:4.4,ratingCount:731},
  {id:252,name:"Barocco Cafetería",lat:39.4810628,lng:-0.36277129999999996,facing:180,open:0.7,type:"terrace",hood:"Benimaclet",icon:"🌿",vibes:["Beer garden","Wine","Cocktails"],book:true,outdoorSeating:true,googleType:"restaurant",rating:4.5,ratingCount:223},
  {id:253,name:"El Pan Quemao Benimaclet",lat:39.4888665,lng:-0.3598942,facing:180,open:0.65,type:"bar",hood:"Benimaclet",icon:"🍺",vibes:["Outdoor seating"],book:false,outdoorSeating:null,googleType:"cafeteria",rating:4.4,ratingCount:96},
  {id:254,name:"El Aprendiz de tapas",lat:39.4821896,lng:-0.3602033,facing:180,open:0.7,type:"terrace",hood:"Benimaclet",icon:"🌿",vibes:["Beer garden","Wine","Cocktails"],book:true,outdoorSeating:true,googleType:"tapas_restaurant",rating:4.6,ratingCount:2864},
  {id:255,name:"Saona Viveros",lat:39.4797596,lng:-0.361349,facing:180,open:0.7,type:"terrace",hood:"Valencia",icon:"🌿",vibes:["Mediterranean","Wine","Cocktails"],book:true,outdoorSeating:true,googleType:"mediterranean_restaurant",rating:4.5,ratingCount:4158},
  {id:256,name:"Stupendo",lat:39.4817378,lng:-0.35657679999999997,facing:180,open:0.7,type:"terrace",hood:"Benimaclet",icon:"🌿",vibes:["Mediterranean","Wine","Cocktails"],book:true,outdoorSeating:true,googleType:"mediterranean_restaurant",rating:4.3,ratingCount:963},
  {id:257,name:"Restaurante Ninda",lat:39.4851345,lng:-0.36106269999999996,facing:180,open:0.7,type:"terrace",hood:"Benimaclet",icon:"🌿",vibes:["Beer garden","Wine","Bookable"],book:true,outdoorSeating:false,googleType:"turkish_restaurant",rating:4.8,ratingCount:620},
  {id:258,name:"Centre Social-bar Terra",lat:39.4851502,lng:-0.360571,facing:180,open:0.65,type:"bar",hood:"Benimaclet",icon:"🍺",vibes:["Beer garden","Wine","Bookable"],book:true,outdoorSeating:false,googleType:"bar",rating:4.4,ratingCount:780},
  {id:259,name:"La Bufala",lat:39.482455699999996,lng:-0.356765,facing:180,open:0.7,type:"terrace",hood:"Benimaclet",icon:"🌿",vibes:["Beer garden","Wine","Cocktails"],book:true,outdoorSeating:true,googleType:"pizza_restaurant",rating:4.4,ratingCount:969},
  {id:260,name:"Al-Paladar - Taverna i Take Away",lat:39.483348,lng:-0.358713,facing:180,open:0.65,type:"bar",hood:"Benimaclet",icon:"🍺",vibes:["Beer garden","Bookable"],book:true,outdoorSeating:false,googleType:"meal_takeaway",rating:4.6,ratingCount:516},
  {id:261,name:"Restaurant L'Encert",lat:39.4805723,lng:-0.356892,facing:180,open:0.7,type:"terrace",hood:"Benimaclet",icon:"🌿",vibes:["Beer garden","Wine","Cocktails"],book:true,outdoorSeating:true,googleType:"restaurant",rating:4.4,ratingCount:448},
  {id:262,name:"Don Blasco",lat:39.4811512,lng:-0.36036039999999997,facing:180,open:0.7,type:"terrace",hood:"Benimaclet",icon:"🌿",vibes:["Beer garden","Wine","Bookable"],book:true,outdoorSeating:null,googleType:"pizza_restaurant",rating:4.5,ratingCount:405},
  {id:263,name:"L'Amagatall",lat:39.4872665,lng:-0.360393,facing:180,open:0.7,type:"terrace",hood:"Benimaclet",icon:"🌿",vibes:["Beer garden","Wine","Bookable"],book:true,outdoorSeating:true,googleType:"restaurant",rating:4.6,ratingCount:358},
  {id:264,name:"\"La Nova Tauleta\" Restaurante",lat:39.4895868,lng:-0.36472289999999996,facing:180,open:0.7,type:"terrace",hood:"Benimaclet",icon:"🌿",vibes:["Beer garden","Wine","Cocktails"],book:true,outdoorSeating:true,googleType:"restaurant",rating:4.4,ratingCount:522},
  {id:265,name:"SomiArt Restaurante",lat:39.4830353,lng:-0.3582399,facing:180,open:0.7,type:"terrace",hood:"Benimaclet",icon:"🌿",vibes:["Beer garden","Wine","Cocktails"],book:true,outdoorSeating:true,googleType:"restaurant",rating:4.9,ratingCount:187},
  {id:266,name:"Bar Plaza",lat:39.4804579,lng:-0.3611563,facing:180,open:0.65,type:"bar",hood:"Benimaclet",icon:"🍺",vibes:["Beer garden","Wine","Bookable"],book:true,outdoorSeating:true,googleType:"bar",rating:4.6,ratingCount:7},
  {id:267,name:"Pescateria Pepito",lat:39.4853531,lng:-0.3590006,facing:180,open:0.65,type:"bar",hood:"Benimaclet",icon:"🍺",vibes:["Outdoor seating"],book:false,outdoorSeating:null,googleType:"food_store",rating:4.8,ratingCount:37},
  {id:268,name:"JJ minimarket",lat:39.4870612,lng:-0.3635662,facing:180,open:0.65,type:"bar",hood:"Benimaclet",icon:"🍺",vibes:["Outdoor seating"],book:false,outdoorSeating:null,googleType:"grocery_store",rating:3.6,ratingCount:10},
  {id:269,name:"Kyoto",lat:39.489926,lng:-0.36283370000000004,facing:180,open:0.7,type:"terrace",hood:"Benimaclet",icon:"🌿",vibes:["Beer garden","Wine","Bookable"],book:true,outdoorSeating:false,googleType:"japanese_restaurant",rating:4.4,ratingCount:3019},
  {id:270,name:"BerlangaBar",lat:39.4881708,lng:-0.3621814,facing:180,open:0.65,type:"bar",hood:"Benimaclet",icon:"🍺",vibes:["Beer garden","Wine","Cocktails"],book:true,outdoorSeating:true,googleType:"bar",rating:4.3,ratingCount:1817},
  {id:271,name:"Escenas Café",lat:39.488830799999995,lng:-0.3618868,facing:180,open:0.65,type:"bar",hood:"Benimaclet",icon:"🍺",vibes:["Grill","Wine","Cocktails"],book:true,outdoorSeating:true,googleType:"bar_and_grill",rating:4.3,ratingCount:1633},
  {id:272,name:"La Cantonà",lat:39.4798293,lng:-0.35669819999999997,facing:180,open:0.65,type:"bar",hood:"Valencia",icon:"🍺",vibes:["Grill","Wine","Cocktails"],book:true,outdoorSeating:true,googleType:"bar_and_grill",rating:4.5,ratingCount:662},
  {id:273,name:"BAR RESTAURANTE BULEVAR",lat:39.481197699999996,lng:-0.3628362,facing:180,open:0.7,type:"terrace",hood:"Benimaclet",icon:"🌿",vibes:["Beer garden","Wine","Bookable"],book:true,outdoorSeating:true,googleType:"colombian_restaurant",rating:4.4,ratingCount:192},
  {id:274,name:"Cien Volando Benimaclet",lat:39.4859703,lng:-0.35863,facing:180,open:0.65,type:"bar",hood:"Benimaclet",icon:"🍺",vibes:["Grill","Wine","Bookable"],book:true,outdoorSeating:true,googleType:"bar_and_grill",rating:4.9,ratingCount:209},
  {id:275,name:"El Tramvia",lat:39.4838248,lng:-0.35847819999999997,facing:180,open:0.65,type:"bar",hood:"Benimaclet",icon:"🍺",vibes:["Grill","Wine","Cocktails"],book:true,outdoorSeating:true,googleType:"bar_and_grill",rating:4.3,ratingCount:476},
  {id:276,name:"Bar Restaurante Alacena",lat:39.4857277,lng:-0.3548918,facing:180,open:0.65,type:"bar",hood:"Benimaclet",icon:"🍺",vibes:["Grill","Wine","Bookable"],book:true,outdoorSeating:true,googleType:"bar_and_grill",rating:4,ratingCount:183},
  {id:277,name:"La Plaça",lat:39.4862117,lng:-0.3582805,facing:180,open:0.7,type:"terrace",hood:"Benimaclet",icon:"🌿",vibes:["Beer garden","Wine","Cocktails"],book:true,outdoorSeating:true,googleType:"restaurant",rating:3.9,ratingCount:942},
  {id:278,name:"Restaurante El Planeta Azul",lat:39.484840399999996,lng:-0.3587283,facing:180,open:0.65,type:"bar",hood:"Benimaclet",icon:"🍺",vibes:["Beer garden","Wine","Bookable"],book:true,outdoorSeating:false,googleType:"bar",rating:4.2,ratingCount:343},
  {id:279,name:"Bar Chamfer",lat:39.4804598,lng:-0.36422659999999996,facing:180,open:0.65,type:"bar",hood:"Benimaclet",icon:"🍺",vibes:["Grill","Bookable"],book:true,outdoorSeating:true,googleType:"bar_and_grill",rating:4.2,ratingCount:183},
  {id:280,name:"ATARDECER LLANERO",lat:39.4865631,lng:-0.3662389,facing:180,open:0.65,type:"bar",hood:"Valencia",icon:"🍺",vibes:["Grill","Wine","Cocktails"],book:true,outdoorSeating:null,googleType:"bar_and_grill",rating:4.3,ratingCount:31},
  {id:281,name:"Nostre Llar CB",lat:39.480874,lng:-0.3605333,facing:180,open:0.65,type:"bar",hood:"Benimaclet",icon:"🍺",vibes:["Grill","Wine","Bookable"],book:true,outdoorSeating:true,googleType:"bar_and_grill",rating:4.1,ratingCount:69},
  {id:282,name:"CAPOLINEA Restaurante",lat:39.483800699999996,lng:-0.35950620000000005,facing:180,open:0.65,type:"bar",hood:"Benimaclet",icon:"🍺",vibes:["Grill","Cocktails"],book:false,outdoorSeating:null,googleType:"bar_and_grill",rating:4.7,ratingCount:27},
  {id:283,name:"Bistromundo",lat:39.4864783,lng:-0.36462239999999996,facing:180,open:0.65,type:"bar",hood:"Benimaclet",icon:"🍺",vibes:["Grill","Wine","Cocktails"],book:true,outdoorSeating:true,googleType:"bar_and_grill",rating:4.8,ratingCount:40},
  {id:284,name:"Bar Els Xiquets",lat:39.4852665,lng:-0.3590381,facing:180,open:0.65,type:"bar",hood:"Benimaclet",icon:"🍺",vibes:["Grill","Wine","Bookable"],book:true,outdoorSeating:true,googleType:"bar_and_grill",rating:4.2,ratingCount:31},
  {id:285,name:"Comer en Valencia, Portal de Reservas",lat:39.4822595,lng:-0.3591021,facing:180,open:0.65,type:"bar",hood:"Benimaclet",icon:"🍺",vibes:["Grill","Wine","Bookable"],book:true,outdoorSeating:null,googleType:"bar_and_grill"},
  {id:286,name:"El Barriclet",lat:39.484048099999995,lng:-0.35924249999999996,facing:180,open:0.65,type:"bar",hood:"Benimaclet",icon:"🍺",vibes:["Grill","Wine"],book:false,outdoorSeating:null,googleType:"bar_and_grill",rating:4.8,ratingCount:23},
  {id:287,name:"NOUR BRASAS",lat:39.4862357,lng:-0.3580481,facing:180,open:0.65,type:"bar",hood:"Benimaclet",icon:"🍺",vibes:["Grill","Wine"],book:false,outdoorSeating:null,googleType:"bar_and_grill"},
  {id:288,name:"Casa Carmela",lat:39.482222199999995,lng:-0.3258333,facing:270,open:0.7,type:"terrace",hood:"Malvarrosa",icon:"🌿",vibes:["Spanish","Wine","Cocktails"],book:true,outdoorSeating:false,googleType:"spanish_restaurant",rating:4.4,ratingCount:8985},
  {id:289,name:"El Trompo Restaurante - Paella House -",lat:39.478347400000004,lng:-0.32429959999999997,facing:270,open:0.7,type:"terrace",hood:"Malvarrosa",icon:"🌿",vibes:["Mediterranean","Wine","Cocktails"],book:true,outdoorSeating:true,googleType:"mediterranean_restaurant",rating:4.5,ratingCount:14334},
  {id:290,name:"Casa Patacona",lat:39.485414399999996,lng:-0.32552149999999996,facing:270,open:0.7,type:"terrace",hood:"Malvarrosa",icon:"🌿",vibes:["Beer garden","Wine","Cocktails"],book:true,outdoorSeating:true,googleType:"korean_restaurant",rating:3.8,ratingCount:5250},
  {id:291,name:"Casa Navarro",lat:39.4857412,lng:-0.32539219999999996,facing:270,open:0.7,type:"terrace",hood:"Malvarrosa",icon:"🌿",vibes:["Beer garden","Wine","Cocktails"],book:true,outdoorSeating:true,googleType:"restaurant",rating:3.8,ratingCount:3604},
  {id:292,name:"Casa Isabel",lat:39.481178199999995,lng:-0.3243605,facing:270,open:0.7,type:"terrace",hood:"Malvarrosa",icon:"🌿",vibes:["Mediterranean","Wine","Cocktails"],book:true,outdoorSeating:true,googleType:"mediterranean_restaurant",rating:4.3,ratingCount:7909},
  {id:293,name:"L'Alegria de l'Horta",lat:39.4794797,lng:-0.3242149,facing:270,open:0.7,type:"terrace",hood:"Malvarrosa",icon:"🌿",vibes:["Mediterranean","Wine","Cocktails"],book:true,outdoorSeating:true,googleType:"mediterranean_restaurant",rating:4.1,ratingCount:4454},
  {id:294,name:"La Murciana",lat:39.4786132,lng:-0.3242469,facing:270,open:0.7,type:"terrace",hood:"Malvarrosa",icon:"🌿",vibes:["Mediterranean","Wine","Cocktails"],book:true,outdoorSeating:true,googleType:"mediterranean_restaurant",rating:4.2,ratingCount:5322},
  {id:295,name:"Restaurant La Herradura",lat:39.4829784,lng:-0.3246748,facing:270,open:0.7,type:"terrace",hood:"Malvarrosa",icon:"🌿",vibes:["Mediterranean","Wine","Cocktails"],book:true,outdoorSeating:true,googleType:"mediterranean_restaurant",rating:4,ratingCount:2560},
  {id:296,name:"Racó d'Adriana",lat:39.479230799999996,lng:-0.3279359,facing:270,open:0.7,type:"terrace",hood:"Malvarrosa",icon:"🌿",vibes:["Beer garden","Wine","Cocktails"],book:true,outdoorSeating:false,googleType:"restaurant",rating:4.5,ratingCount:1807},
  {id:297,name:"Restaurant Llevant",lat:39.4843816,lng:-0.3256696,facing:270,open:0.7,type:"terrace",hood:"Malvarrosa",icon:"🌿",vibes:["Mediterranean","Wine","Bookable"],book:true,outdoorSeating:true,googleType:"mediterranean_restaurant",rating:3.4,ratingCount:1902},
  {id:298,name:"Restaurante Gastón",lat:39.482119,lng:-0.32792,facing:270,open:0.7,type:"terrace",hood:"Malvarrosa",icon:"🌿",vibes:["Beer garden","Wine","Cocktails"],book:true,outdoorSeating:false,googleType:"korean_restaurant",rating:4.4,ratingCount:1287},
  {id:299,name:"Casa Ripoll",lat:39.4793059,lng:-0.3245529,facing:270,open:0.7,type:"terrace",hood:"Malvarrosa",icon:"🌿",vibes:["Spanish","Wine","Cocktails"],book:true,outdoorSeating:true,googleType:"spanish_restaurant",rating:3.9,ratingCount:2897},
  {id:300,name:"Cafe Montoro",lat:39.4829741,lng:-0.33054259999999996,facing:270,open:0.7,type:"terrace",hood:"Cabanyal",icon:"🌿",vibes:["Beer garden","Wine","Cocktails"],book:false,outdoorSeating:true,googleType:"restaurant",rating:4.9,ratingCount:194},
  {id:301,name:"La Taula de Xuan",lat:39.4797894,lng:-0.33129339999999996,facing:270,open:0.7,type:"terrace",hood:"Cabanyal",icon:"🌿",vibes:["Beer garden","Wine","Bookable"],book:true,outdoorSeating:true,googleType:"restaurant",rating:4.4,ratingCount:432},
  {id:302,name:"AMOLATAPA",lat:39.485898299999995,lng:-0.326341,facing:270,open:0.7,type:"terrace",hood:"Malvarrosa",icon:"🌿",vibes:["Spanish","Wine","Bookable"],book:true,outdoorSeating:true,googleType:"spanish_restaurant",rating:4,ratingCount:398},
  {id:303,name:"El Rincón",lat:39.4774335,lng:-0.32727649999999997,facing:270,open:0.8,type:"beach",hood:"Malvarrosa",icon:"🏖️",vibes:["Beach club","Wine","Cocktails"],book:true,outdoorSeating:true,googleType:"bar",rating:4.3,ratingCount:227},
  {id:304,name:"El Racó Marítim",lat:39.47888530000001,lng:-0.3245143,facing:270,open:0.7,type:"terrace",hood:"Malvarrosa",icon:"🌿",vibes:["Beer garden","Wine","Cocktails"],book:true,outdoorSeating:true,googleType:"restaurant",rating:3.2,ratingCount:356},
  {id:305,name:"Horchatería Malva Rosa 18",lat:39.4776191,lng:-0.3278991,facing:270,open:0.7,type:"terrace",hood:"Malvarrosa",icon:"🌿",vibes:["Beer garden","Wine","Bookable"],book:true,outdoorSeating:true,googleType:"restaurant",rating:4.1,ratingCount:64},
  {id:306,name:"Restaurante La Malva Azul",lat:39.476917199999995,lng:-0.3242797,facing:270,open:0.7,type:"terrace",hood:"Malvarrosa",icon:"🌿",vibes:["Spanish","Wine","Bookable"],book:true,outdoorSeating:true,googleType:"spanish_restaurant",rating:1.4,ratingCount:242},
  {id:307,name:"La Más Bonita",lat:39.4851987,lng:-0.3255971,facing:270,open:0.7,type:"terrace",hood:"Malvarrosa",icon:"🌿",vibes:["Mediterranean","Wine","Cocktails"],book:true,outdoorSeating:true,googleType:"mediterranean_restaurant",rating:4.2,ratingCount:11845},
  {id:308,name:"COCOA Valencia",lat:39.484549799999996,lng:-0.3255925,facing:270,open:0.7,type:"terrace",hood:"Malvarrosa",icon:"🌿",vibes:["Mediterranean","Wine","Cocktails"],book:true,outdoorSeating:true,googleType:"mediterranean_restaurant",rating:4.3,ratingCount:5839},
  {id:309,name:"La Chipirona Playa",lat:39.4855222,lng:-0.32556029999999997,facing:270,open:0.7,type:"terrace",hood:"Malvarrosa",icon:"🌿",vibes:["Mediterranean","Wine","Cocktails"],book:true,outdoorSeating:true,googleType:"mediterranean_restaurant",rating:4.2,ratingCount:2090},
  {id:310,name:"Restaurante Luz de Luna",lat:39.4798159,lng:-0.3242579,facing:270,open:0.7,type:"terrace",hood:"Malvarrosa",icon:"🌿",vibes:["Beer garden","Wine","Cocktails"],book:true,outdoorSeating:true,googleType:"restaurant",rating:4,ratingCount:3669},
  {id:311,name:"El Bobo",lat:39.4815438,lng:-0.3243976,facing:270,open:0.7,type:"terrace",hood:"Malvarrosa",icon:"🌿",vibes:["Mediterranean","Wine","Cocktails"],book:true,outdoorSeating:true,googleType:"mediterranean_restaurant",rating:4.2,ratingCount:3264},
  {id:312,name:"Restaurante Novamar",lat:39.478858699999996,lng:-0.3244954,facing:270,open:0.7,type:"terrace",hood:"Malvarrosa",icon:"🌿",vibes:["Mediterranean","Wine","Cocktails"],book:true,outdoorSeating:true,googleType:"mediterranean_restaurant",rating:4.1,ratingCount:3394},
  {id:313,name:"Casa César, El Dofí",lat:39.4786073,lng:-0.3260276,facing:270,open:0.7,type:"terrace",hood:"Malvarrosa",icon:"🌿",vibes:["Mediterranean","Wine","Bookable"],book:true,outdoorSeating:true,googleType:"mediterranean_restaurant",rating:4.7,ratingCount:1269},
  {id:314,name:"BAR RESTAURANTE GRAN CANARIA",lat:39.4834045,lng:-0.32918949999999997,facing:270,open:0.65,type:"bar",hood:"Cabanyal",icon:"🍺",vibes:["Grill","Wine","Bookable"],book:true,outdoorSeating:true,googleType:"bar_and_grill",rating:4.3,ratingCount:598},
  {id:315,name:"Bar \"Mi Familia\"",lat:39.4794421,lng:-0.3268153,facing:270,open:0.65,type:"bar",hood:"Malvarrosa",icon:"🍺",vibes:["Grill","Wine","Bookable"],book:true,outdoorSeating:null,googleType:"bar_and_grill",rating:4.8,ratingCount:78},
  {id:316,name:"Bar restaurante Karma",lat:39.4803344,lng:-0.3281576,facing:270,open:0.65,type:"bar",hood:"Cabanyal",icon:"🍺",vibes:["Grill","Wine","Bookable"],book:true,outdoorSeating:true,googleType:"bar_and_grill",rating:4.6,ratingCount:54},
  {id:317,name:"Bar Restaurante Bareta",lat:39.4773929,lng:-0.32816059999999997,facing:270,open:0.65,type:"bar",hood:"Cabanyal",icon:"🍺",vibes:["Grill","Wine","Bookable"],book:true,outdoorSeating:null,googleType:"bar_and_grill",rating:3.9,ratingCount:193},
  {id:318,name:"BAR RESTAURANTE RUBY",lat:39.4832286,lng:-0.3292215,facing:270,open:0.65,type:"bar",hood:"Cabanyal",icon:"🍺",vibes:["Grill","Wine","Bookable"],book:true,outdoorSeating:true,googleType:"bar_and_grill",rating:4,ratingCount:21},
  {id:319,name:"Hermanos Barberà",lat:39.475522999999995,lng:-0.32933900000000005,facing:270,open:0.7,type:"terrace",hood:"Cabanyal",icon:"🌿",vibes:["Spanish","Wine","Cocktails"],book:true,outdoorSeating:true,googleType:"spanish_restaurant",rating:4.1,ratingCount:3675},
  {id:320,name:"Tot Brasa | Restaurante de Carnes a la Brasa en Valencia",lat:39.4752175,lng:-0.3303333,facing:270,open:0.7,type:"terrace",hood:"Cabanyal",icon:"🌿",vibes:["Beer garden","Wine","Cocktails"],book:true,outdoorSeating:true,googleType:"restaurant",rating:3.9,ratingCount:1953},
  {id:321,name:"Bar Bon Lloc",lat:39.474209599999995,lng:-0.3292768,facing:270,open:0.8,type:"beach",hood:"Cabanyal",icon:"🏖️",vibes:["Beach club","Wine","Cocktails"],book:true,outdoorSeating:null,googleType:"bar",rating:4.2,ratingCount:55},
  {id:322,name:"Polit Vera",lat:39.4841628,lng:-0.32788900000000004,facing:270,open:0.7,type:"terrace",hood:"Malvarrosa",icon:"🌿",vibes:["Mediterranean","Wine","Cocktails"],book:true,outdoorSeating:false,googleType:"mediterranean_restaurant",rating:3.8,ratingCount:1167},
  {id:323,name:"El Tio Nelo Bar",lat:39.480927,lng:-0.3276248,facing:270,open:0.8,type:"beach",hood:"Malvarrosa",icon:"🏖️",vibes:["Beach club","Wine","Bookable"],book:true,outdoorSeating:true,googleType:"bar",rating:3.9,ratingCount:102},
  {id:324,name:"Club Gastronòmic Galileu",lat:39.479425,lng:-0.340522,facing:180,open:0.7,type:"terrace",hood:"Cabanyal",icon:"🌿",vibes:["Beer garden","Wine","Bookable"],book:true,outdoorSeating:false,googleType:"restaurant",rating:4.1,ratingCount:92},
  {id:325,name:"Taska la Reina Cabanyal",lat:39.470863099999995,lng:-0.3284547,facing:270,open:0.7,type:"terrace",hood:"Valencia",icon:"🌿",vibes:["Mediterranean","Wine","Bookable"],book:true,outdoorSeating:true,googleType:"mediterranean_restaurant",rating:4.6,ratingCount:13759},
  {id:326,name:"La Taberna Casera. Arrocería y Freiduría.",lat:39.4724151,lng:-0.3330132,facing:270,open:0.7,type:"terrace",hood:"Valencia",icon:"🌿",vibes:["Mediterranean","Wine","Cocktails"],book:true,outdoorSeating:false,googleType:"mediterranean_restaurant",rating:4.6,ratingCount:3317},
  {id:327,name:"Las Cremositas",lat:39.4720947,lng:-0.326169,facing:270,open:0.7,type:"terrace",hood:"Valencia",icon:"🌿",vibes:["Spanish","Wine"],book:false,outdoorSeating:true,googleType:"spanish_restaurant",rating:4.8,ratingCount:1193},
  {id:328,name:"MESTIZA - plant based restaurant",lat:39.470874599999995,lng:-0.3282157,facing:270,open:0.7,type:"terrace",hood:"Valencia",icon:"🌿",vibes:["Beer garden","Wine","Bookable"],book:true,outdoorSeating:true,googleType:"vegan_restaurant",rating:4.6,ratingCount:1216},
  {id:329,name:"La Lonja Del Pescado",lat:39.4739821,lng:-0.32569339999999997,facing:270,open:0.7,type:"terrace",hood:"Valencia",icon:"🌿",vibes:["Seafood","Wine","Bookable"],book:true,outdoorSeating:false,googleType:"seafood_restaurant",rating:4.2,ratingCount:2045},
  {id:330,name:"La Mona Restaurante",lat:39.4728366,lng:-0.3279263,facing:270,open:0.7,type:"terrace",hood:"Valencia",icon:"🌿",vibes:["Mediterranean","Wine","Cocktails"],book:true,outdoorSeating:true,googleType:"mediterranean_restaurant",rating:4.8,ratingCount:924},
  {id:331,name:"Xaruga Restaurant",lat:39.472432,lng:-0.3282237,facing:270,open:0.7,type:"terrace",hood:"Valencia",icon:"🌿",vibes:["Beer garden","Wine","Bookable"],book:true,outdoorSeating:true,googleType:"restaurant",rating:4.9,ratingCount:217},
  {id:332,name:"CLOCHINAS LA ROCHETA",lat:39.4720601,lng:-0.33066650000000003,facing:270,open:0.8,type:"beach",hood:"Valencia",icon:"🏖️",vibes:["Beach club"],book:false,outdoorSeating:null,googleType:"grocery_store",rating:4.4,ratingCount:114},
  {id:333,name:"Tasca y Brasa",lat:39.4718792,lng:-0.3257066,facing:270,open:0.65,type:"bar",hood:"Valencia",icon:"🍺",vibes:["Grill","Wine","Cocktails"],book:true,outdoorSeating:true,googleType:"bar_and_grill",rating:4.1,ratingCount:3181},
  {id:334,name:"La Aldeana 1927",lat:39.471585,lng:-0.3297206,facing:270,open:0.7,type:"terrace",hood:"Valencia",icon:"🌿",vibes:["Beer garden","Wine","Cocktails"],book:true,outdoorSeating:true,googleType:"restaurant",rating:4.9,ratingCount:792},
  {id:335,name:"Bar restaurante El secreto de la señora patata",lat:39.4728486,lng:-0.3319529,facing:270,open:0.7,type:"terrace",hood:"Valencia",icon:"🌿",vibes:["Beer garden","Wine","Bookable"],book:true,outdoorSeating:false,googleType:"hamburger_restaurant",rating:5,ratingCount:826},
  {id:336,name:"Bar La Plaza",lat:39.4722675,lng:-0.3318036,facing:270,open:0.8,type:"beach",hood:"Valencia",icon:"🏖️",vibes:["Beach club","Wine","Bookable"],book:true,outdoorSeating:true,googleType:"bar",rating:4.1,ratingCount:181},
  {id:337,name:"BOCADELLA TAPAS",lat:39.4748759,lng:-0.346477,facing:180,open:0.7,type:"terrace",hood:"Valencia",icon:"🌿",vibes:["Beer garden","Wine","Cocktails"],book:true,outdoorSeating:true,googleType:"restaurant",rating:4.7,ratingCount:1526},
  {id:338,name:"Cervecería El Rincón València",lat:39.473393,lng:-0.343978,facing:180,open:0.7,type:"terrace",hood:"Valencia",icon:"🌿",vibes:["Outdoor seating"],book:false,outdoorSeating:null,googleType:"restaurant",rating:3.9,ratingCount:3181},
  {id:339,name:"Restaurante los Malagueños",lat:39.476208799999995,lng:-0.3484638,facing:180,open:0.7,type:"terrace",hood:"Valencia",icon:"🌿",vibes:["Beer garden","Wine","Bookable"],book:true,outdoorSeating:true,googleType:"restaurant",rating:3.7,ratingCount:1395},
  {id:340,name:"Maruxiña, O New Furancho",lat:39.4769849,lng:-0.3486922,facing:180,open:0.7,type:"terrace",hood:"Valencia",icon:"🌿",vibes:["Spanish","Wine","Bookable"],book:true,outdoorSeating:false,googleType:"spanish_restaurant",rating:4.8,ratingCount:481},
  {id:341,name:"Bar Bocho.",lat:39.476270299999996,lng:-0.349812,facing:180,open:0.65,type:"bar",hood:"Valencia",icon:"🍺",vibes:["Beer garden","Wine","Cocktails"],book:true,outdoorSeating:true,googleType:"bar",rating:4.5,ratingCount:714},
  {id:342,name:"BODEGA LOS HERMANOS",lat:39.475919,lng:-0.34755169999999996,facing:180,open:0.65,type:"bar",hood:"Valencia",icon:"🍺",vibes:["Outdoor seating"],book:false,outdoorSeating:null,googleType:"winery",rating:4.4,ratingCount:439},
  {id:343,name:"El Perrito",lat:39.4746326,lng:-0.34630869999999997,facing:180,open:0.7,type:"terrace",hood:"Valencia",icon:"🌿",vibes:["Beer garden","Wine","Cocktails"],book:true,outdoorSeating:true,googleType:"fast_food_restaurant",rating:4.5,ratingCount:662},
  {id:344,name:"Begin Invernadero - Valencia",lat:39.4746227,lng:-0.34777959999999997,facing:180,open:0.7,type:"terrace",hood:"Valencia",icon:"🌿",vibes:["Beer garden","Wine","Bookable"],book:true,outdoorSeating:false,googleType:"restaurant",rating:4.5,ratingCount:3775},
  {id:345,name:"El Pato Mareao",lat:39.475103499999996,lng:-0.3461895,facing:180,open:0.65,type:"bar",hood:"Valencia",icon:"🍺",vibes:["Beer garden","Wine","Cocktails"],book:true,outdoorSeating:true,googleType:"bar",rating:4,ratingCount:2627},
  {id:346,name:"Balansiya restaurante árabe marroquí y halal de tradición andalusí",lat:39.4776345,lng:-0.3479384,facing:180,open:0.7,type:"terrace",hood:"Valencia",icon:"🌿",vibes:["Beer garden","Wine","Bookable"],book:true,outdoorSeating:false,googleType:"moroccan_restaurant",rating:4.6,ratingCount:1772},
  {id:347,name:"Restaurante Casa Enrique",lat:39.473001,lng:-0.3421784,facing:180,open:0.7,type:"terrace",hood:"Valencia",icon:"🌿",vibes:["Mediterranean","Wine","Cocktails"],book:true,outdoorSeating:true,googleType:"mediterranean_restaurant",rating:4.6,ratingCount:409},
  {id:348,name:"Pan De Azúcar Xúquer",lat:39.476220999999995,lng:-0.3495563,facing:180,open:0.7,type:"terrace",hood:"Valencia",icon:"🌿",vibes:["Beer garden","Wine","Bookable"],book:true,outdoorSeating:true,googleType:"restaurant",rating:4.4,ratingCount:2705},
  {id:349,name:"Isla Margarita Restaurant & Bar",lat:39.473511599999995,lng:-0.34201640000000005,facing:180,open:0.65,type:"bar",hood:"Valencia",icon:"🍺",vibes:["Grill","Wine","Cocktails"],book:true,outdoorSeating:true,googleType:"bar_and_grill",rating:4.7,ratingCount:528},
  {id:350,name:"La Reina de los bares",lat:39.475186,lng:-0.348617,facing:180,open:0.65,type:"bar",hood:"Valencia",icon:"🍺",vibes:["Grill","Wine","Bookable"],book:true,outdoorSeating:true,googleType:"bar_and_grill",rating:4.4,ratingCount:89},
  {id:351,name:"Aire del Cairo Tetéría",lat:39.474856599999995,lng:-0.34644169999999996,facing:180,open:0.7,type:"terrace",hood:"Valencia",icon:"🌿",vibes:["Outdoor seating"],book:false,outdoorSeating:null,googleType:"restaurant",rating:3.8,ratingCount:50},
];